[{"id":0,"name":"ADNOC - AL DHANNAH HOSPITAL - ABU DHABI (AL RUWAIS HOSPITAL)","type":"Hospital","region":"Abu Dhabi","address":"Al Ruwais  Al Dhafra Region","phone":"+97126020535","benefits":["In-Patient","Out-Patient","Dental","Psychiatry","Assistance","Maternity","Optical","Alternative Treatment"],"gatekeeper":"No","lat":24.453884,"lng":54.377344,"geocode_status":"approximate","color":"#E63946"},{"id":1,"name":"AL AHLI HOSPITAL COMPANY LLC - BRANCH 1 PRVSLY AL AHALIA HOSPITAL (MUSSAFAH) ABU DHABI","type":"Hospital","region":"Abu Dhabi","address":"M-24 Mussaffah  Near BMW Show Room","phone":"+97128119119","benefits":["In-Patient","Out-Patient","Dental","Psychiatry","Assistance","Maternity","Optical","Alternative Treatment"],"gatekeeper":"No","lat":24.367113,"lng":54.522359,"geocode_status":"exact","color":"#E63946"},{"id":2,"name":"Ain Al Khaleej Hospital (Al Jimi)  Al Ain","type":"Hospital","region":"Abu Dhabi","address":"Hamdan Bin Mohammad Street  Behind Al Jimi Mall  Al Jimi - Al Ain","phone":"+97137133333","benefits":["In-Patient","Out-Patient","Dental","Psychiatry","Assistance","Maternity","Optical","Alternative Treatment"],"gatekeeper":"No","lat":24.245879,"lng":55.722936,"geocode_status":"exact","color":"#E63946"},{"id":3,"name":"Al Ahalia Hospital (Hamdan St) Abu Dhabi","type":"Hospital","region":"Abu Dhabi","address":"Hamdan Street  Abu Dhabi","phone":"+97126262666","benefits":["In-Patient","Out-Patient","Dental","Psychiatry","Assistance","Maternity","Optical","Alternative Treatment"],"gatekeeper":"No","lat":24.487913,"lng":54.359875,"geocode_status":"approximate","color":"#E63946"},{"id":4,"name":"BURJEEL MEDICAL CITY LLC (MOHAMMED BIN ZAYED) ABU DHABI","type":"Hospital","region":"Abu Dhabi","address":"BURJEEL MEDICAL CITY  MOHOMMED BIN ZAYED CITY ABU DHABI UAE","phone":"+97127773333","benefits":["In-Patient","Out-Patient","Dental","Psychiatry","Assistance","Maternity","Optical","Alternative Treatment"],"gatekeeper":"No","lat":24.354527,"lng":54.539562,"geocode_status":"approximate","color":"#E63946"},{"id":5,"name":"BURJEEL ROYAL HOSPITAL (SHEIKH KHALIFA BIN ZAYED RD.) AL AIN","type":"Hospital","region":"Abu Dhabi","address":"Sheikh Khalifa Bin Zayed Road  behinde Golden sheep restaurant - Al Ain","phone":"+97137991111","benefits":["In-Patient","Out-Patient","Dental","Psychiatry","Assistance","Maternity","Optical","Alternative Treatment"],"gatekeeper":"No","lat":24.223899,"lng":55.758863,"geocode_status":"approximate","color":"#E63946"},{"id":6,"name":"BURJEEL ROYAL HOSPITAL ASHAREJ (BID BIN AMMAR) AL AIN (PRE BURJEEL FARHA HOSPITAL)","type":"Hospital","region":"Abu Dhabi","address":"Ashraj District  Bida Bin Ammer Road  17th Street  Al Ain","phone":"+97137099000","benefits":["In-Patient","Out-Patient","Dental","Psychiatry","Assistance","Maternity","Optical","Alternative Treatment"],"gatekeeper":"No","lat":24.20645,"lng":55.662496,"geocode_status":"approximate","color":"#E63946"},{"id":7,"name":"Bareen International Hospital (M.B.Z. City) Abu Dhabi","type":"Hospital","region":"Abu Dhabi","address":"Next to Shaikah Fatima Bint Mubarak Mosque  Z-15  Mohammad Bin Zayed City - Abu Dhabi","phone":"+97125545554","benefits":["In-Patient","Out-Patient","Dental","Psychiatry","Assistance","Maternity","Optical","Alternative Treatment"],"gatekeeper":"No","lat":24.339081,"lng":54.554629,"geocode_status":"approximate","color":"#E63946"},{"id":8,"name":"Burjeel Hospital (Najdah St.) Abu Dhabi","type":"Hospital","region":"Abu Dhabi","address":"Beside Dar Al Shifa Hospital  Junction Fatima Bint Mubarak (Najdah) Street with Hazza Bin Zayed Street - Abu Dhabi","phone":"+97122222332","benefits":["In-Patient","Out-Patient","Dental","Psychiatry","Assistance","Maternity","Optical","Alternative Treatment"],"gatekeeper":"No","lat":24.4794,"lng":54.381218,"geocode_status":"approximate","color":"#E63946"},{"id":9,"name":"Czech Rehabilitation Hospital - Sole Proprietroship (Al Jimi Area) Al Ain","type":"Hospital","region":"Abu Dhabi","address":"Opposite Al Ain Fertility Center  Al Jimi Area  Al Ain  UAE","phone":"+97137665544","benefits":["In-Patient","Out-Patient","Dental","Psychiatry","Assistance","Maternity","Optical","Alternative Treatment"],"gatekeeper":"No","lat":24.245822,"lng":55.721655,"geocode_status":"approximate","color":"#E63946"},{"id":10,"name":"DAS HOSPITAL (DAS ISLAND) ABU DHABI","type":"Hospital","region":"Abu Dhabi","address":"DAS Island  Abu Dhabi  UAE","phone":"+9719717071271","benefits":["In-Patient","Out-Patient","Dental","Psychiatry","Assistance","Maternity","Optical","Alternative Treatment"],"gatekeeper":"No","lat":24.429986,"lng":54.45868,"geocode_status":"approximate","color":"#E63946"},{"id":11,"name":"Danat Al Emarat Hospital for Women & Children (Abu Dhabi Gate City) Abu Dhabi (M42)","type":"Hospital","region":"Abu Dhabi","address":"Abu Dhabi Gate City، Abu Dhabi","phone":"+97126149999","benefits":["In-Patient","Out-Patient","Dental","Psychiatry","Assistance","Maternity","Optical","Alternative Treatment"],"gatekeeper":"No","lat":24.396867,"lng":54.500793,"geocode_status":"approximate","color":"#E63946"},{"id":12,"name":"ELYZEE HOSPITAL (PRVSLY ELYZEE DAY SURGERY MEDICAL CENTER) ABU DHABI","type":"Hospital","region":"Abu Dhabi","address":"Elyzee Hospital  Villa Plot 173  Sector W47  Al Mushrif  Abu Dhabi city","phone":"+97125664222","benefits":["In-Patient","Out-Patient","Dental","Psychiatry","Assistance","Maternity","Optical","Alternative Treatment"],"gatekeeper":"No","lat":24.426532,"lng":54.405403,"geocode_status":"approximate","color":"#E63946"},{"id":13,"name":"Emirates International Hospital (Al Jimi) Al Ain","type":"Hospital","region":"Abu Dhabi","address":"Al Jimi  Al-Ain","phone":"+97137637252","benefits":["In-Patient","Out-Patient","Dental","Psychiatry","Assistance","Maternity","Optical","Alternative Treatment"],"gatekeeper":"No","lat":24.23399,"lng":55.722914,"geocode_status":"approximate","color":"#E63946"},{"id":14,"name":"GLOBAL CARE HOSPITAL (AL MANHAL) ABU DHABI","type":"Hospital","region":"Abu Dhabi","address":"WEST 14-1  BUILDING 419 HAZAA’ BIN ZAYED THE FIRST STREET  AL MANHAL AREA","phone":"+97124185100","benefits":["In-Patient","Out-Patient","Dental","Psychiatry","Assistance","Maternity","Optical","Alternative Treatment"],"gatekeeper":"No","lat":24.464275,"lng":54.364951,"geocode_status":"exact","color":"#E63946"},{"id":15,"name":"Kanad Hospital (Sanaiya St.) Al Ain","type":"Hospital","region":"Abu Dhabi","address":"Sanaiya St  Near Etisalat  Al Ain","phone":"+97137131111","benefits":["In-Patient","Out-Patient","Dental","Psychiatry","Assistance","Maternity","Optical","Alternative Treatment"],"gatekeeper":"No","lat":24.206618,"lng":55.759772,"geocode_status":"approximate","color":"#E63946"},{"id":16,"name":"LLH HOSPITAL (ELECTRA ST) ABU DHABI","type":"Hospital","region":"Abu Dhabi","address":"Al Marwa Tower  Electra Street","phone":"+97126335522","benefits":["In-Patient","Out-Patient","Dental","Psychiatry","Assistance","Maternity","Optical","Alternative Treatment"],"gatekeeper":"No","lat":24.487656,"lng":54.364881,"geocode_status":"exact","color":"#E63946"},{"id":17,"name":"LLH HOSPITAL (MUSAFFAH) ABU DHABI","type":"Hospital","region":"Abu Dhabi","address":"16th  Street  SANAYYA – 7  Industrial Area  Sector 43  M1 Musaffah  Abu Dhabi  UAE","phone":"+97125557711","benefits":["In-Patient","Out-Patient","Dental","Psychiatry","Assistance","Maternity","Optical","Alternative Treatment"],"gatekeeper":"No","lat":24.487656,"lng":54.364881,"geocode_status":"exact","color":"#E63946"},{"id":18,"name":"Lifecare Hospital (Mafraq) Abu Dhabi","type":"Hospital","region":"Abu Dhabi","address":"Gate 6  Al Raha Workers Village  Al Wathba  Baniyas  Al Mafraq","phone":"+97125856333","benefits":["In-Patient","Out-Patient","Dental","Psychiatry","Assistance","Maternity","Optical","Alternative Treatment"],"gatekeeper":"No","lat":24.360744,"lng":54.520472,"geocode_status":"exact","color":"#E63946"},{"id":19,"name":"Lifecare Hospital (Mussafah) Abu Dhabi","type":"Hospital","region":"Abu Dhabi","address":"M-24 Musaffah Near Village Mall - Abu Dhabi","phone":"+97125557747","benefits":["In-Patient","Out-Patient","Dental","Psychiatry","Assistance","Maternity","Optical","Alternative Treatment"],"gatekeeper":"No","lat":24.360744,"lng":54.520472,"geocode_status":"exact","color":"#E63946"},{"id":20,"name":"MEDEOR 24X7 HOSPITAL (MUROOR ROAD) ABU DHABI","type":"Hospital","region":"Abu Dhabi","address":"Opposite Empost  Madinat Zayed Area  Muroor Road","phone":"+97126900600","benefits":["In-Patient","Out-Patient","Dental","Psychiatry","Assistance","Maternity","Optical","Alternative Treatment"],"gatekeeper":"No","lat":24.480244,"lng":54.369843,"geocode_status":"approximate","color":"#E63946"},{"id":21,"name":"MEDICLINIC HOSPITALS L.L.C. (AL AIN BRANCH HOSPITAL)","type":"Hospital","region":"Abu Dhabi","address":"Al Mada Complex  Next to Choitram Supermarket  Khalifa Street  Al Ain","phone":"+97137667666","benefits":["In-Patient","Out-Patient","Dental","Psychiatry","Assistance","Maternity","Optical","Alternative Treatment"],"gatekeeper":"No","lat":24.490874,"lng":54.360592,"geocode_status":"exact","color":"#E63946"},{"id":22,"name":"MILLENNIUM HOSPITAL LLC - ABU DHABI","type":"Hospital","region":"Abu Dhabi","address":"NEAR SARAVANAA BHAVAN  SHABIYA  MUSSAFAH  ABU DHABI","phone":"+97128119170","benefits":["In-Patient","Out-Patient","Dental","Psychiatry","Assistance","Maternity","Optical","Alternative Treatment"],"gatekeeper":"No","lat":24.341732,"lng":54.537439,"geocode_status":"approximate","color":"#E63946"},{"id":23,"name":"Mediclinic Al Noor Hospital (Airport Rd) Abu Dhabi","type":"Hospital","region":"Abu Dhabi","address":"Mear Madinat Zayed Sports CityP. O. Box: 48481","phone":"+97124446655","benefits":["In-Patient","Out-Patient","Dental","Psychiatry","Assistance","Maternity","Optical","Alternative Treatment"],"gatekeeper":"No","lat":24.490874,"lng":54.360592,"geocode_status":"exact","color":"#E63946"},{"id":24,"name":"Mediclinic Hospital Al Jowhara (Shakhboot Bin Sultan St.) Al Ain","type":"Hospital","region":"Abu Dhabi","address":"Shakhboot Bin Sultan St  Civic Center  Al Ain","phone":"+97137051591","benefits":["In-Patient","Out-Patient","Dental","Psychiatry","Assistance","Maternity","Optical","Alternative Treatment"],"gatekeeper":"No","lat":24.23303,"lng":55.724441,"geocode_status":"approximate","color":"#E63946"},{"id":25,"name":"NATIONAL HOSPTAL L.L.C (AL DANAH) ABU DHABI","type":"Hospital","region":"Abu Dhabi","address":"Behind Honda Showroom  Electra Street  Abu Dhabi  U.A.E.","phone":"+97126711000","benefits":["In-Patient","Out-Patient","Dental","Psychiatry","Assistance","Maternity","Optical","Alternative Treatment"],"gatekeeper":"No","lat":24.490119,"lng":54.37308,"geocode_status":"exact","color":"#E63946"},{"id":26,"name":"NMC Royal Hospital (Khalifa City) Abu Dhabi","type":"Hospital","region":"Abu Dhabi","address":"Khalifa City Plot p-1 SE 4 -16 street Zone 135","phone":"+97122035000","benefits":["In-Patient","Out-Patient","Dental","Psychiatry","Assistance","Maternity","Optical","Alternative Treatment"],"gatekeeper":"No","lat":24.452466,"lng":54.393445,"geocode_status":"approximate","color":"#E63946"},{"id":27,"name":"NMC Royal Womens Hospital (Muroor St.) Abu Dhabi","type":"Hospital","region":"Abu Dhabi","address":"Tower B  Mohammed bin Zayed Stadium  Al Jazira Club  Opposite to Dusit Thani Sultan Bin Zayed the First St - Muroor Rd - Abu Dhabi","phone":"+97125082000","benefits":["In-Patient","Out-Patient","Dental","Psychiatry","Assistance","Maternity","Optical","Alternative Treatment"],"gatekeeper":"No","lat":24.452752,"lng":54.393542,"geocode_status":"exact","color":"#E63946"},{"id":28,"name":"NMC Specialty Hospital (Electra Street)  - Abu Dhabi","type":"Hospital","region":"Abu Dhabi","address":"Zayed the First street  Madinath Zayed Area  Near Sama Tower - Abu DhabiP.O.Box 46222  Abu Dhabi- UAE","phone":"+97126332255","benefits":["In-Patient","Out-Patient","Dental","Psychiatry","Assistance","Maternity","Optical","Alternative Treatment"],"gatekeeper":"No","lat":24.483778,"lng":54.361163,"geocode_status":"exact","color":"#E63946"},{"id":29,"name":"New Medical Centre Speciality Hospital (Shakhboot Bin Sultan St) Al Ain","type":"Hospital","region":"Abu Dhabi","address":"Opposite Baladiya Park  Shakhboot Bin Sultan Street  Near Ayla hotel  Al Ain","phone":"+97137555999","benefits":["In-Patient","Out-Patient","Dental","Psychiatry","Assistance","Maternity","Optical","Alternative Treatment"],"gatekeeper":"No","lat":24.22256,"lng":55.768615,"geocode_status":"approximate","color":"#E63946"},{"id":30,"name":"PHOENIX HOSPITAL L.L.C","type":"Hospital","region":"Abu Dhabi","address":"M-10  Shabiyah  Musaffah","phone":"+97126151515","benefits":["In-Patient","Out-Patient","Dental","Psychiatry","Assistance","Maternity","Optical","Alternative Treatment"],"gatekeeper":"No","lat":24.332524,"lng":54.530814,"geocode_status":"exact","color":"#E63946"},{"id":31,"name":"REEM HOSPITAL (REEM ISLAND) ABU DHABI","type":"Hospital","region":"Abu Dhabi","address":"Reem Island Opposite Sorbonne University  Abu Dhabi","phone":"+971558300313","benefits":["In-Patient","Out-Patient","Dental","Psychiatry","Assistance","Maternity","Optical","Alternative Treatment"],"gatekeeper":"No","lat":24.490701,"lng":54.413284,"geocode_status":"exact","color":"#E63946"},{"id":32,"name":"REVITAL REHABILITATION HOSPITAL (AL FOAH) AL AIN","type":"Hospital","region":"Abu Dhabi","address":"AL TAWWASH STREET  AL FOAH  AL AIN  UAEPhone EXTN - 4060","phone":"+97137144460","benefits":["In-Patient","Out-Patient","Dental","Psychiatry","Assistance","Maternity","Optical","Alternative Treatment"],"gatekeeper":"No","lat":24.331938,"lng":55.801462,"geocode_status":"approximate","color":"#E63946"},{"id":33,"name":"ROYAL HEALTH AL SALAM SPECIALIZED HOSPITAL (BANIYAS) ABU DHABI","type":"Hospital","region":"Abu Dhabi","address":"25P Building  8th Block  Baniyas East  Abu Dhabi","phone":"+97137195000","benefits":["In-Patient","Out-Patient","Dental","Psychiatry","Assistance","Maternity","Optical","Alternative Treatment"],"gatekeeper":"No","lat":24.43161,"lng":54.435215,"geocode_status":"exact","color":"#E63946"},{"id":34,"name":"SEHA - Al Ain Hospital (Shakhboot Bin Sultan St.) Al Ain","type":"Hospital","region":"Abu Dhabi","address":"\"Al Jimi District Shakhboot Ibn Sultan Street P.O. Box: 1006\"","phone":"+97137635888","benefits":["In-Patient","Out-Patient","Dental","Psychiatry","Assistance","Maternity","Optical","Alternative Treatment"],"gatekeeper":"No","lat":24.231596,"lng":55.733111,"geocode_status":"approximate","color":"#E63946"},{"id":35,"name":"SEHA - Al Corniche Hospital (Salam St.) Abu Dhabi","type":"Hospital","region":"Abu Dhabi","address":"Corniche Street beside Sheraton Abu Dhabi","phone":"+97126965496","benefits":["In-Patient","Out-Patient","Dental","Psychiatry","Assistance","Maternity","Optical","Alternative Treatment"],"gatekeeper":"No","lat":24.50123,"lng":54.369562,"geocode_status":"approximate","color":"#E63946"},{"id":36,"name":"SEHA - Al Corniche Hospital IVF Centre (Salam St) Abu dhabi","type":"Hospital","region":"Abu Dhabi","address":"Corniche Road beside Sheraton Hotel  AUH","phone":"+97128190000","benefits":["In-Patient","Out-Patient","Dental","Psychiatry","Assistance","Maternity","Optical","Alternative Treatment"],"gatekeeper":"No","lat":24.501085,"lng":54.369647,"geocode_status":"approximate","color":"#E63946"},{"id":37,"name":"SEHA - Al Rahba Hospital (Rahba City) Abu Dhabi","type":"Hospital","region":"Abu Dhabi","address":"Middle Region  Al Shahama Street  Al Rahba  AUH","phone":"+97125064444","benefits":["In-Patient","Out-Patient","Dental","Psychiatry","Assistance","Maternity","Optical","Alternative Treatment"],"gatekeeper":"No","lat":24.572694,"lng":54.69491,"geocode_status":"exact","color":"#E63946"},{"id":38,"name":"SEHA - Al Wagan  Hospital (Al Wagan) Al Ain","type":"Hospital","region":"Abu Dhabi","address":"Al Wagan Area  P O BOX 15258  Al Ain","phone":"+97137677444","benefits":["In-Patient","Out-Patient","Dental","Psychiatry","Assistance","Maternity","Optical","Alternative Treatment"],"gatekeeper":"No","lat":23.63744,"lng":55.566173,"geocode_status":"approximate","color":"#E63946"},{"id":39,"name":"SEHA - Behavioral Science Pavilion (Al Karamah St.) Abu Dhabi","type":"Hospital","region":"Abu Dhabi","address":"Al Karama Street  beside Sheikh Khalifa Medical City  AUH","phone":"+97128190000","benefits":["In-Patient","Out-Patient","Dental","Psychiatry","Assistance","Maternity","Optical","Alternative Treatment"],"gatekeeper":"No","lat":24.473071,"lng":54.36662,"geocode_status":"exact","color":"#E63946"},{"id":40,"name":"SEHA - Delma Hospital (Delma Island) Al Dhafrah Region","type":"Hospital","region":"Abu Dhabi","address":"Western Region  Delma Island  Abudhabi.","phone":"+97128942000","benefits":["In-Patient","Out-Patient","Dental","Psychiatry","Assistance","Maternity","Optical","Alternative Treatment"],"gatekeeper":"No","lat":24.453884,"lng":54.377344,"geocode_status":"approximate","color":"#E63946"},{"id":41,"name":"SEHA - Ghiathy Hospital (Ghiathy) Al Dhafrah Region","type":"Hospital","region":"Abu Dhabi","address":"Ruwais  Nr Riyathi  | Abu Dhabi | United Arab Emirates","phone":"+97128721555","benefits":["In-Patient","Out-Patient","Dental","Psychiatry","Assistance","Maternity","Optical","Alternative Treatment"],"gatekeeper":"No","lat":24.453884,"lng":54.377344,"geocode_status":"approximate","color":"#E63946"},{"id":42,"name":"SEHA - Liwa Hospital (Liwa)  Al Dhafrah Region","type":"Hospital","region":"Abu Dhabi","address":"Liwa-Madinat Zayed Road (E 45 Road)  Liwa  Abu DhabiLandmark: Near ADNOC Petrol Station","phone":"+97128777175","benefits":["In-Patient","Out-Patient","Dental","Psychiatry","Assistance","Maternity","Optical","Alternative Treatment"],"gatekeeper":"No","lat":23.1477,"lng":53.807173,"geocode_status":"approximate","color":"#E63946"},{"id":43,"name":"SEHA - Madinat Zayed Hospital (Madinat Zayed) Al Dhafrah Region","type":"Hospital","region":"Abu Dhabi","address":"Madinat Road  Bada Zayed  Abu DhabiLandmark: Opposite Al Dhafra Co-operative","phone":"+97128781888","benefits":["In-Patient","Out-Patient","Dental","Psychiatry","Assistance","Maternity","Optical","Alternative Treatment"],"gatekeeper":"No","lat":23.646168,"lng":53.70808,"geocode_status":"approximate","color":"#E63946"},{"id":44,"name":"SEHA - Mafraq Hospital (Mafraq) Abu Dhabi","type":"Hospital","region":"Abu Dhabi","address":"Abu Dhabi - Ghweifat International Hwy - Abu Dhabi","phone":"+97125011111","benefits":["In-Patient","Out-Patient","Dental","Psychiatry","Assistance","Maternity","Optical","Alternative Treatment"],"gatekeeper":"No","lat":24.329054,"lng":54.613409,"geocode_status":"exact","color":"#E63946"},{"id":45,"name":"SEHA - Marfa Hospital (Marfa) Abu Dhabi","type":"Hospital","region":"Abu Dhabi","address":"Abu Dhabi-Sila Road (E 11)  Al Mirfa  Abu DhabiLandmark: Near National Bank of Abu Dhabi","phone":"+97128822204","benefits":["In-Patient","Out-Patient","Dental","Psychiatry","Assistance","Maternity","Optical","Alternative Treatment"],"gatekeeper":"No","lat":24.469001,"lng":54.337577,"geocode_status":"approximate","color":"#E63946"},{"id":46,"name":"SEHA - Sheikh Khalifa Medical City(SKMC) ( Karamah St.) Abu Dhabi","type":"Hospital","region":"Abu Dhabi","address":"Al Karamah Street  Sheikh Khalifa Medical City - Abu DhabiP.O. Box 51900Abu Dhabi  United Arab Emirates","phone":"+97128190000","benefits":["In-Patient","Out-Patient","Dental","Psychiatry","Assistance","Maternity","Optical","Alternative Treatment"],"gatekeeper":"No","lat":24.467758,"lng":54.366079,"geocode_status":"approximate","color":"#E63946"},{"id":47,"name":"SEHA - Sila Hospital (Sila) Al Dhafrah Region","type":"Hospital","region":"Abu Dhabi","address":"Abu Dhabi-Sila Road (E 11)  Al Sila  Abu DhabiLandmark: Opposite Al Sila Park","phone":"+97128721555","benefits":["In-Patient","Out-Patient","Dental","Psychiatry","Assistance","Maternity","Optical","Alternative Treatment"],"gatekeeper":"No","lat":24.043604,"lng":51.758801,"geocode_status":"exact","color":"#E63946"},{"id":48,"name":"SEHA - Tawam Hospital - Al Ain","type":"Hospital","region":"Abu Dhabi","address":"Tawam Campus  Maqam Street","phone":"+97137072294","benefits":["In-Patient","Out-Patient","Dental","Psychiatry","Assistance","Maternity","Optical","Alternative Treatment"],"gatekeeper":"No","lat":24.195801,"lng":55.647821,"geocode_status":"approximate","color":"#E63946"},{"id":49,"name":"SEHA Dialysis Services - Tawam Hospital - Al Ain","type":"Hospital","region":"Abu Dhabi","address":"nan","phone":"+97128190000","benefits":["In-Patient","Out-Patient","Dental","Psychiatry","Assistance","Maternity","Optical","Alternative Treatment"],"gatekeeper":"No","lat":24.195524,"lng":55.644425,"geocode_status":"exact","color":"#E63946"},{"id":50,"name":"SEHA Emirates Hospital LLC - Abu Dhabi","type":"Hospital","region":"Abu Dhabi","address":"Al Nahyan Camp Area Abu Dhabi","phone":"+97124438999","benefits":["In-Patient","Out-Patient","Dental","Psychiatry","Assistance","Maternity","Optical","Alternative Treatment"],"gatekeeper":"No","lat":24.470873,"lng":54.382969,"geocode_status":"approximate","color":"#E63946"},{"id":51,"name":"SEHA-Dialysis Services - Ghiathy Hospital","type":"Hospital","region":"Abu Dhabi","address":"Western Region Western Region Western Region","phone":"+97128190000","benefits":["In-Patient","Out-Patient","Dental","Psychiatry","Assistance","Maternity","Optical","Alternative Treatment"],"gatekeeper":"No","lat":24.453884,"lng":54.377344,"geocode_status":"approximate","color":"#E63946"},{"id":52,"name":"SEHA-Dialysis Services - Madinat Zayed Hospital","type":"Hospital","region":"Abu Dhabi","address":"Al Nahyan Camp  AUH","phone":"+97125012929","benefits":["In-Patient","Out-Patient","Dental","Psychiatry","Assistance","Maternity","Optical","Alternative Treatment"],"gatekeeper":"No","lat":24.33309,"lng":54.557636,"geocode_status":"exact","color":"#E63946"},{"id":53,"name":"SEHA-Dialysis Services Al Marfa Hospital","type":"Hospital","region":"Abu Dhabi","address":"Al Nahyan Camp  AUH","phone":"+97128190000","benefits":["In-Patient","Out-Patient","Dental","Psychiatry","Assistance","Maternity","Optical","Alternative Treatment"],"gatekeeper":"No","lat":24.453884,"lng":54.377344,"geocode_status":"approximate","color":"#E63946"},{"id":54,"name":"SEHA-Dialysis Services Al Sila Hospital","type":"Hospital","region":"Abu Dhabi","address":"Western Region Western Region Western Region","phone":"+97128190000","benefits":["In-Patient","Out-Patient","Dental","Psychiatry","Assistance","Maternity","Optical","Alternative Treatment"],"gatekeeper":"No","lat":24.453884,"lng":54.377344,"geocode_status":"approximate","color":"#E63946"},{"id":55,"name":"SEHA-Dialysis Services Delma Hospital","type":"Hospital","region":"Abu Dhabi","address":"Delma Hospital  AUH","phone":"+97128190000","benefits":["In-Patient","Out-Patient","Dental","Psychiatry","Assistance","Maternity","Optical","Alternative Treatment"],"gatekeeper":"No","lat":24.469342,"lng":54.384084,"geocode_status":"exact","color":"#E63946"},{"id":56,"name":"SEHA-Dialysis Services-Sheikh Khalifa Medical City","type":"Hospital","region":"Abu Dhabi","address":"Karama Street  Abu Dhabi City","phone":"+97128190000","benefits":["In-Patient","Out-Patient","Dental","Psychiatry","Assistance","Maternity","Optical","Alternative Treatment"],"gatekeeper":"No","lat":24.468901,"lng":54.368333,"geocode_status":"exact","color":"#E63946"},{"id":57,"name":"STMC - SHEIKH TAHNOON BIN MOHAMMED MEDICAL CITY (AL AIN) ABU DHABI","type":"Hospital","region":"Abu Dhabi","address":"DAS TOWER  CORNICHE ROAD  15TH FLOOR  ABUDHABI","phone":"+97124102711","benefits":["In-Patient","Out-Patient","Dental","Psychiatry","Assistance","Maternity","Optical","Alternative Treatment"],"gatekeeper":"No","lat":24.472473,"lng":54.365793,"geocode_status":"exact","color":"#E63946"},{"id":58,"name":"STMC - SHEIKH TAHNOON BIN MOHAMMED MEDICAL CITY - REHABILITATION HOSPITAL (AL AIN) ABU DHABI","type":"Hospital","region":"Abu Dhabi","address":"DAS TOWER  CORNICHE ROAD  15TH FLOOR  ABUDHABI","phone":"+97124102711","benefits":["In-Patient","Out-Patient","Dental","Psychiatry","Assistance","Maternity","Optical","Alternative Treatment"],"gatekeeper":"No","lat":24.324228,"lng":54.613438,"geocode_status":"exact","color":"#E63946"},{"id":59,"name":"Specialized Medical Care Hospital (Hessa bint Mohamed St.) Al Ain","type":"Hospital","region":"Abu Dhabi","address":"Hessa bint Mohamed St.  P.O.Box 59189  Al Ain- UAE","phone":"+97137552291","benefits":["In-Patient","Out-Patient","Dental","Psychiatry","Assistance","Maternity","Optical","Alternative Treatment"],"gatekeeper":"No","lat":24.214757,"lng":55.757704,"geocode_status":"approximate","color":"#E63946"},{"id":60,"name":"YAS CLINIC KHALIFA CITY - ABU DHABI","type":"Hospital","region":"Abu Dhabi","address":"NEAR AL RAWAFED PVT SCHOOL- MHANNA ST - KHALIFA CITY - SE44 - ABU DHABI","phone":"+97124945555","benefits":["In-Patient","Out-Patient","Dental","Psychiatry","Assistance","Maternity","Optical","Alternative Treatment"],"gatekeeper":"No","lat":24.430301,"lng":54.582513,"geocode_status":"approximate","color":"#E63946"},{"id":61,"name":"AL TADAWI SPECIALTY HOSPITAL LLC (AL GARHOUD) DUBAI","type":"Hospital","region":"Dubai","address":"AL TADAWI HOSPITAL BUILDING  UM RAMOOL ROAD  NEAR RTA HQ  AL GARHOUD  DUBAI PO BOX 13079","phone":"+97142309999","benefits":["In-Patient","Out-Patient","Dental","Psychiatry","Assistance","Maternity","Optical","Alternative Treatment"],"gatekeeper":"No","lat":25.233216,"lng":55.354087,"geocode_status":"approximate","color":"#E63946"},{"id":62,"name":"AMERICAN HOSPITAL DUBAI SCIENCE PARK (AL BARSHA SOUTH) DUBAI","type":"Hospital","region":"Dubai","address":"36GW+773 Dubai Science Park - Umm Suqeim St - Al Barsha - Al Barsha South - Dubai","phone":"+97143775500","benefits":["In-Patient","Out-Patient","Dental","Psychiatry","Assistance","Maternity","Optical","Alternative Treatment"],"gatekeeper":"No","lat":25.075593,"lng":55.246099,"geocode_status":"approximate","color":"#E63946"},{"id":63,"name":"ASTER CEDARS HOSPITAL JEBEL ALI (PRVSLY CEDARS - JEBEL ALI INTL HOSPITAL (MENA JABAL ALI) DUBAI","type":"Hospital","region":"Dubai","address":"Street No.2  Jebel Ali Freezone  Dubai P.O.Box 17666","phone":"+97148814000","benefits":["In-Patient","Out-Patient","Dental","Psychiatry","Assistance","Maternity","Optical","Alternative Treatment"],"gatekeeper":"No","lat":25.015122,"lng":55.087564,"geocode_status":"approximate","color":"#E63946"},{"id":64,"name":"Adam Vital Hospital LLC (Al Garhoud) Dubai","type":"Hospital","region":"Dubai","address":"Al Waleed Building  10th Street  Near GGICO  Metro Station Al Garhoud  Dubai","phone":"+97142068999","benefits":["In-Patient","Out-Patient","Dental","Psychiatry","Assistance","Maternity","Optical","Alternative Treatment"],"gatekeeper":"No","lat":25.251241,"lng":55.342988,"geocode_status":"exact","color":"#E63946"},{"id":65,"name":"Al Garhoud Private Hospital (Al Garhoud) - Dubai","type":"Hospital","region":"Dubai","address":"Al Garhoud  behind Millenium Hotel - Dubai","phone":"+97144545000","benefits":["In-Patient","Out-Patient","Dental","Psychiatry","Assistance","Maternity","Optical","Alternative Treatment"],"gatekeeper":"No","lat":25.243629,"lng":55.347424,"geocode_status":"approximate","color":"#E63946"},{"id":66,"name":"Al Zahra Pvt Hospital (Al Barsha First) - Dubai","type":"Hospital","region":"Dubai","address":"Al Barsha  near to Sharaf DG Metro Station  Sheikh Zayed Road  Dubai","phone":"+97143786666","benefits":["In-Patient","Out-Patient","Dental","Psychiatry","Assistance","Maternity","Optical","Alternative Treatment"],"gatekeeper":"No","lat":25.105957,"lng":55.18053,"geocode_status":"approximate","color":"#E63946"},{"id":67,"name":"American Academy Of Cosmetic Surgery Hospital","type":"Hospital","region":"Dubai","address":"BUILDING 73  DISTRICT 1","phone":"+97144237600","benefits":["In-Patient","Out-Patient","Dental","Psychiatry","Assistance","Maternity","Optical","Alternative Treatment"],"gatekeeper":"No","lat":25.232671,"lng":55.319545,"geocode_status":"exact","color":"#E63946"},{"id":68,"name":"American Hospital - Dubai","type":"Hospital","region":"Dubai","address":"19th Street  Oud Metha  Dubai","phone":"+971043367777","benefits":["In-Patient","Out-Patient","Dental","Psychiatry","Assistance","Maternity","Optical","Alternative Treatment"],"gatekeeper":"No","lat":25.235389,"lng":55.31317,"geocode_status":"approximate","color":"#E63946"},{"id":69,"name":"Aster Hospital (Al Qusais) - Dubai","type":"Hospital","region":"Dubai","address":"9 A Street  Al Qusais Industrial Area 2 Al Qusais  Dubai","phone":"+97144400500","benefits":["In-Patient","Out-Patient","Dental","Psychiatry","Assistance","Maternity","Optical","Alternative Treatment"],"gatekeeper":"No","lat":25.252298,"lng":55.288704,"geocode_status":"approximate","color":"#E63946"},{"id":70,"name":"Aster Hospital (Mankhool-Al Raffa) - Dubai","type":"Hospital","region":"Dubai","address":"Kuwait Street  Mankhool  Next to Sharaf DG  Bur Dubai  DXB  P.O Box: 8703","phone":"+97144400500","benefits":["In-Patient","Out-Patient","Dental","Psychiatry","Assistance","Maternity","Optical","Alternative Treatment"],"gatekeeper":"No","lat":25.252298,"lng":55.288704,"geocode_status":"approximate","color":"#E63946"},{"id":71,"name":"Aster Hospital Sonapur (Muhaisnah 2) Dubai","type":"Hospital","region":"Dubai","address":"ASTER HOSPITAL  SONAPUR  ALGERIA STREET  MUHAISNAH 2  DUBAI","phone":"+97144400500","benefits":["In-Patient","Out-Patient","Dental","Psychiatry","Assistance","Maternity","Optical","Alternative Treatment"],"gatekeeper":"No","lat":25.252298,"lng":55.288704,"geocode_status":"approximate","color":"#E63946"},{"id":72,"name":"BARRAQUER EYE HOSPITAL (AL JADAF) DUBAI","type":"Hospital","region":"Dubai","address":"DUBAI HEALTHCARE CITY - PHASE II  AL JADAF  DUBAI  UAE","phone":"+97145739999","benefits":["In-Patient","Out-Patient","Dental","Psychiatry","Assistance","Maternity","Optical","Alternative Treatment"],"gatekeeper":"No","lat":25.209709,"lng":55.320422,"geocode_status":"exact","color":"#E63946"},{"id":73,"name":"Burjeel Hospital for Advanced Surgery  (AL QUOZ ) Dubai","type":"Hospital","region":"Dubai","address":"Al Quoz Industrial First  Sheikh Zayed Road  Dubai","phone":"+97142700407","benefits":["In-Patient","Out-Patient","Dental","Psychiatry","Assistance","Maternity","Optical","Alternative Treatment"],"gatekeeper":"No","lat":25.204849,"lng":55.270783,"geocode_status":"approximate","color":"#E63946"},{"id":74,"name":"CLEMENCEAU MEDICAL CENTER FZ-LLC","type":"Hospital","region":"Dubai","address":"PLOT 22  DUBAI HEALTHCARE CITY PHASE 2  NEAR MARRIOT RESIDENCE AL JADAF","phone":"+97142481111","benefits":["In-Patient","Out-Patient","Dental","Psychiatry","Assistance","Maternity","Optical","Alternative Treatment"],"gatekeeper":"No","lat":25.212461,"lng":55.318266,"geocode_status":"approximate","color":"#E63946"},{"id":75,"name":"CLINICA SABAH SPECIALTY HOSPITAL (KARAMA)  DUBAI","type":"Hospital","region":"Dubai","address":"Sheikh Rashid Rd - Al Mankhool - Dubai Uae","phone":"+97143388055","benefits":["In-Patient","Out-Patient","Dental","Psychiatry","Assistance","Maternity","Optical","Alternative Treatment"],"gatekeeper":"No","lat":25.240598,"lng":55.295106,"geocode_status":"approximate","color":"#E63946"},{"id":76,"name":"Canadian Specialist Hospital (HOR AL ANZ ) Dubai","type":"Hospital","region":"Dubai","address":"Behind Ministry of Environment and Water - Abu Hail Rd. - Deira - Dubai  P. O. Box: 15881","phone":"+97147072222","benefits":["In-Patient","Out-Patient","Dental","Psychiatry","Assistance","Maternity","Optical","Alternative Treatment"],"gatekeeper":"No","lat":25.277331,"lng":55.34859,"geocode_status":"approximate","color":"#E63946"},{"id":77,"name":"Cosmesurge Plastic Surgery Hospital and Clinics LLC - Dubai","type":"Hospital","region":"Dubai","address":"UM-SUQUIM SECOND  BEACH ROAD  DUBAI","phone":"+97145200444","benefits":["In-Patient","Out-Patient","Dental","Psychiatry","Assistance","Maternity","Optical","Alternative Treatment"],"gatekeeper":"No","lat":25.166106,"lng":55.213644,"geocode_status":"exact","color":"#E63946"},{"id":78,"name":"DHA - Dubai  Hospital","type":"Hospital","region":"Dubai","address":"Deira  Dubai  United Arab Emirates","phone":"+97142195000","benefits":["In-Patient","Out-Patient","Dental","Psychiatry","Assistance","Maternity","Optical","Alternative Treatment"],"gatekeeper":"No","lat":25.257287,"lng":55.326346,"geocode_status":"exact","color":"#E63946"},{"id":79,"name":"DHA - Hatta Hospital","type":"Hospital","region":"Dubai","address":"891 Hatta  Dubai UAE","phone":"+971448147000","benefits":["In-Patient","Out-Patient","Dental","Psychiatry","Assistance","Maternity","Optical","Alternative Treatment"],"gatekeeper":"No","lat":24.806169,"lng":56.125385,"geocode_status":"approximate","color":"#E63946"},{"id":80,"name":"DHA - Latifa Hospital","type":"Hospital","region":"Dubai","address":"Oud Metha Road  Al Jadaf  Dubai","phone":"+97142193000","benefits":["In-Patient","Out-Patient","Dental","Psychiatry","Assistance","Maternity","Optical","Alternative Treatment"],"gatekeeper":"No","lat":25.223417,"lng":55.317915,"geocode_status":"approximate","color":"#E63946"},{"id":81,"name":"DHA - PHYSIOTHERAPY & REHABILITATION CENTER (PRSLY DPRC) (AL SAFA 2ND) DUBAI","type":"Hospital","region":"Dubai","address":"Physiotherapy & Rehabilitation Center 29 B- Safa 2   Jumeirah  Dubai  UAE","phone":"+97140000000","benefits":["In-Patient","Out-Patient","Dental","Psychiatry","Assistance","Maternity","Optical","Alternative Treatment"],"gatekeeper":"No","lat":25.204849,"lng":55.270783,"geocode_status":"approximate","color":"#E63946"},{"id":82,"name":"DHA - Rashid Hospital - Dubai","type":"Hospital","region":"Dubai","address":"Oud Metha Area - Dubai  Tel: 04-2192000 04-5024455; 04-2195000  04-2714444; 04-3371111","phone":"+9719742191000","benefits":["In-Patient","Out-Patient","Dental","Psychiatry","Assistance","Maternity","Optical","Alternative Treatment"],"gatekeeper":"No","lat":25.244917,"lng":55.319078,"geocode_status":"approximate","color":"#E63946"},{"id":83,"name":"DUBAI LONDON HOSPITAL LLC (UMM SUQEIM SECOND) DUBAI","type":"Hospital","region":"Dubai","address":"UMM SUQEIM SECOND  DUBAI","phone":"+97143782999","benefits":["In-Patient","Out-Patient","Dental","Psychiatry","Assistance","Maternity","Optical","Alternative Treatment"],"gatekeeper":"No","lat":25.154753,"lng":55.203019,"geocode_status":"approximate","color":"#E63946"},{"id":84,"name":"Dr. Sulaiman Al Habib Hospital (Dubai Healthcare City) - Dubai","type":"Hospital","region":"Dubai","address":"Building 57 - Dubai Healthcare City - Umm Hurair 2 - Dubai","phone":"+97144297777","benefits":["In-Patient","Out-Patient","Dental","Psychiatry","Assistance","Maternity","Optical","Alternative Treatment"],"gatekeeper":"No","lat":25.232654,"lng":55.320896,"geocode_status":"exact","color":"#E63946"},{"id":85,"name":"Dubai London Clinic & Speciality Hospital - Dubai","type":"Hospital","region":"Dubai","address":"P.O.Box 12119DubaiUnited Arab Emirates","phone":"+97143782999","benefits":["In-Patient","Out-Patient","Dental","Psychiatry","Assistance","Maternity","Optical","Alternative Treatment"],"gatekeeper":"No","lat":25.152947,"lng":55.201472,"geocode_status":"approximate","color":"#E63946"},{"id":86,"name":"Dubai Medical University Hospital - Dubai","type":"Hospital","region":"Dubai","address":"DUBAI MEDICAL UNIVERSITY HOSPITAL BUILDINGMUHAISNAH 1 STREET 33Dubai","phone":"+97142120055","benefits":["In-Patient","Out-Patient","Dental","Psychiatry","Assistance","Maternity","Optical","Alternative Treatment"],"gatekeeper":"No","lat":25.248035,"lng":55.417435,"geocode_status":"exact","color":"#E63946"},{"id":87,"name":"Emirates Hospital (Jumeirah 2) Dubai","type":"Hospital","region":"Dubai","address":"Opposite Jumeirah Beach Park  Jumeirah Beach Street  Jumeirah  Dubai  PO. Box 73663","phone":"+97145200500","benefits":["In-Patient","Out-Patient","Dental","Psychiatry","Assistance","Maternity","Optical","Alternative Treatment"],"gatekeeper":"No","lat":25.204849,"lng":55.270783,"geocode_status":"approximate","color":"#E63946"},{"id":88,"name":"Emirates Specialty Hospital (Dubai Healthcare City) Dubai","type":"Hospital","region":"Dubai","address":"Building 62 Dubai Healthcare City - Oud Metha Rd - Dubai","phone":"+9719712484500","benefits":["In-Patient","Out-Patient","Dental","Psychiatry","Assistance","Maternity","Optical","Alternative Treatment"],"gatekeeper":"No","lat":25.231948,"lng":55.3175,"geocode_status":"exact","color":"#E63946"},{"id":89,"name":"Fakeeh University Hospital - Dubai","type":"Hospital","region":"Dubai","address":"Dubai Silicon Oasis  Dubai  UAE","phone":"+97144144626","benefits":["In-Patient","Out-Patient","Dental","Psychiatry","Assistance","Maternity","Optical","Alternative Treatment"],"gatekeeper":"No","lat":25.121405,"lng":55.387072,"geocode_status":"approximate","color":"#E63946"},{"id":90,"name":"Gargash Hospital (Umm Suqeim) Dubai","type":"Hospital","region":"Dubai","address":"Umm Suqeim  Umm Al Sheif  Dubai","phone":"+97147030000","benefits":["In-Patient","Out-Patient","Dental","Psychiatry","Assistance","Maternity","Optical","Alternative Treatment"],"gatekeeper":"No","lat":25.127569,"lng":55.196624,"geocode_status":"approximate","color":"#E63946"},{"id":91,"name":"International Modern Hospital (Al Raffa) Dubai","type":"Hospital","region":"Dubai","address":"Port Rashid Road Al Mankhool Area - Dubai","phone":"+97144063000","benefits":["In-Patient","Out-Patient","Dental","Psychiatry","Assistance","Maternity","Optical","Alternative Treatment"],"gatekeeper":"No","lat":25.248681,"lng":55.283206,"geocode_status":"approximate","color":"#E63946"},{"id":92,"name":"Iranian Hospital (AL BADA'A)  Dubai","type":"Hospital","region":"Dubai","address":"Al Wasl Road  Iranian Hospital Building  Dubai","phone":"+97144046574","benefits":["In-Patient","Out-Patient","Dental","Psychiatry","Assistance","Maternity","Optical","Alternative Treatment"],"gatekeeper":"No","lat":25.229963,"lng":55.269212,"geocode_status":"approximate","color":"#E63946"},{"id":93,"name":"JEBEL ALI EMERGENCY AND TRAUMA CENTER (JEBEL ALI AIRPORT ) DUBAI","type":"Hospital","region":"Dubai","address":"DUBAI INDUSTRIAL CITY SAIH SHUAIB 2 MADINAT AL QUDRA  INTERNATIONAL HUMANITERIAN CITY","phone":"+9719710080060","benefits":["In-Patient","Out-Patient","Dental","Psychiatry","Assistance","Maternity","Optical","Alternative Treatment"],"gatekeeper":"No","lat":24.893589,"lng":55.070205,"geocode_status":"approximate","color":"#E63946"},{"id":94,"name":"Kings College Hospital London (Dubai Hills) Dubai","type":"Hospital","region":"Dubai","address":"Marabea Street  Dubai Hills Estate  Dubai","phone":"+97145199999","benefits":["In-Patient","Out-Patient","Dental","Psychiatry","Assistance","Maternity","Optical","Alternative Treatment"],"gatekeeper":"No","lat":25.112811,"lng":55.254983,"geocode_status":"approximate","color":"#E63946"},{"id":95,"name":"MEDCARE ROYAL SPECIALITY HOSPITAL (BR OF MEDCARE HOSPITAL )(AL QUSAIS) DUBAI","type":"Hospital","region":"Dubai","address":"Al Qusais Second  Namaah Premises  Al Twar  Dubai  UAE","phone":"+97148374800","benefits":["In-Patient","Out-Patient","Dental","Psychiatry","Assistance","Maternity","Optical","Alternative Treatment"],"gatekeeper":"No","lat":25.266711,"lng":55.389339,"geocode_status":"exact","color":"#E63946"},{"id":96,"name":"MIRDIF PRIVATE HOSPITAL LLC (AL MIZHAR) DUBAI","type":"Hospital","region":"Dubai","address":"BESIDE MODERN EDUCATION SCHOOL  AL MIZHAR  DUBAI","phone":"+97145889210","benefits":["In-Patient","Out-Patient","Dental","Psychiatry","Assistance","Maternity","Optical","Alternative Treatment"],"gatekeeper":"No","lat":25.285374,"lng":55.321634,"geocode_status":"exact","color":"#E63946"},{"id":97,"name":"Medcare Hospital (Al Safa 1) Dubai","type":"Hospital","region":"Dubai","address":"Hadiqa Street  Al safa Near Al Safa Park - Dubai","phone":"+97144079135","benefits":["In-Patient","Out-Patient","Dental","Psychiatry","Assistance","Maternity","Optical","Alternative Treatment"],"gatekeeper":"No","lat":25.266711,"lng":55.389339,"geocode_status":"exact","color":"#E63946"},{"id":98,"name":"Medcare Orthopaedics & Spine Hospital (Al Safa) Dubai","type":"Hospital","region":"Dubai","address":"22 A street  From Sheikh Zayed Road  2nd Interchange - Dubai","phone":"+97143768400","benefits":["In-Patient","Out-Patient","Dental","Psychiatry","Assistance","Maternity","Optical","Alternative Treatment"],"gatekeeper":"No","lat":25.17918,"lng":55.247203,"geocode_status":"approximate","color":"#E63946"},{"id":99,"name":"Medcare Women & Child Hospital (Al Safa 2) Dubai","type":"Hospital","region":"Dubai","address":"Beside Manara Services Centre، Sheikh Zayed Road  Dubai  alternate tel no: 04-4079220/04-3010758","phone":"+97143010888","benefits":["In-Patient","Out-Patient","Dental","Psychiatry","Assistance","Maternity","Optical","Alternative Treatment"],"gatekeeper":"No","lat":25.161131,"lng":55.230585,"geocode_status":"approximate","color":"#E63946"},{"id":100,"name":"Medeor 24X7 Hospital (Umm Hurair 1) Dubai","type":"Hospital","region":"Dubai","address":"Consulates Area  Sheikh Khalifa Bin Zayed Road  Bur Dubai - Dubai","phone":"+97143500600","benefits":["In-Patient","Out-Patient","Dental","Psychiatry","Assistance","Maternity","Optical","Alternative Treatment"],"gatekeeper":"No","lat":25.257293,"lng":55.306791,"geocode_status":"approximate","color":"#E63946"},{"id":101,"name":"Mediclinic City Hospital (Dubai Healthcare City) - Dubai","type":"Hospital","region":"Dubai","address":"Building 35 Dubai Healthcare City - Dubai","phone":"+97144359999","benefits":["In-Patient","Out-Patient","Dental","Psychiatry","Assistance","Maternity","Optical","Alternative Treatment"],"gatekeeper":"No","lat":25.204849,"lng":55.270783,"geocode_status":"approximate","color":"#E63946"},{"id":102,"name":"Mediclinic Parkview Hospital (Al Barsha South) Dubai","type":"Hospital","region":"Dubai","address":"Umm Suqeim St - Dubai  Al Barsha South Third Dubai","phone":"+97144168851","benefits":["In-Patient","Out-Patient","Dental","Psychiatry","Assistance","Maternity","Optical","Alternative Treatment"],"gatekeeper":"No","lat":25.065409,"lng":55.248886,"geocode_status":"approximate","color":"#E63946"},{"id":103,"name":"Mediclinic Welcare Hospital (Al Garhoud)  Dubai","type":"Hospital","region":"Dubai","address":"Behind Grand Stores  Sheikh Rashid Rd. - Dubai","phone":"+97142827788","benefits":["In-Patient","Out-Patient","Dental","Psychiatry","Assistance","Maternity","Optical","Alternative Treatment"],"gatekeeper":"No","lat":25.246787,"lng":55.340138,"geocode_status":"approximate","color":"#E63946"},{"id":104,"name":"Medstar Healthcare Llc","type":"Hospital","region":"Dubai","address":"GROUND FLOOR  GULF TOWERS  OUD METHA","phone":"+97143577877","benefits":["In-Patient","Out-Patient","Dental","Psychiatry","Assistance","Maternity","Optical","Alternative Treatment"],"gatekeeper":"No","lat":25.098364,"lng":55.174258,"geocode_status":"exact","color":"#E63946"},{"id":105,"name":"NMC Royal Hospital (DIP 1) Dubai","type":"Hospital","region":"Dubai","address":"Plot no # 598/122 Dubai Investments Park 1 Behind Falcon house - Dubai","phone":"+97148108800","benefits":["In-Patient","Out-Patient","Dental","Psychiatry","Assistance","Maternity","Optical","Alternative Treatment"],"gatekeeper":"No","lat":25.003016,"lng":55.153924,"geocode_status":"exact","color":"#E63946"},{"id":106,"name":"NMC SPECIALTY HOSPITAL (BR OF NMC ROYAL HOSPITAL LLC) DIP - DUBAI (PREVIOUSLY NMC HOSPITAL)","type":"Hospital","region":"Dubai","address":"PLOT NO 598-639  IN FRONT OF GREEN COMMUNITY  AL ZAROUNI BUILDING  DIP 1  DUBAI  UAE","phone":"+97148019129","benefits":["In-Patient","Out-Patient","Dental","Psychiatry","Assistance","Maternity","Optical","Alternative Treatment"],"gatekeeper":"No","lat":25.009586,"lng":55.158825,"geocode_status":"approximate","color":"#E63946"},{"id":107,"name":"NMC Specialty Hospital (Al Nahda 2) Dubai","type":"Hospital","region":"Dubai","address":"Next to Bait AL Khair Building - 7 A St - Amman St - Dubai","phone":"+97142679999","benefits":["In-Patient","Out-Patient","Dental","Psychiatry","Assistance","Maternity","Optical","Alternative Treatment"],"gatekeeper":"No","lat":25.009586,"lng":55.158825,"geocode_status":"approximate","color":"#E63946"},{"id":108,"name":"Novomed Specialized Surgical Hospital (Umm Suqeim 3) Dubai","type":"Hospital","region":"Dubai","address":"26th Street  Opposite to King's School - Al Wasl Rd - Dubai","phone":"+97145542121","benefits":["In-Patient","Out-Patient","Dental","Psychiatry","Assistance","Maternity","Optical","Alternative Treatment"],"gatekeeper":"No","lat":25.135137,"lng":55.196692,"geocode_status":"approximate","color":"#E63946"},{"id":109,"name":"Prime Hospital (Al Garhoud)  Dubai","type":"Hospital","region":"Dubai","address":"Airport Road  Al Garhoud  Next to Le Meridian Hotel - Dubai","phone":"+97142929777","benefits":["In-Patient","Out-Patient","Dental","Psychiatry","Assistance","Maternity","Optical","Alternative Treatment"],"gatekeeper":"No","lat":25.249748,"lng":55.345651,"geocode_status":"approximate","color":"#E63946"},{"id":110,"name":"SINO HOSPITAL (AL QUSAIS FIRST) DUBAI","type":"Hospital","region":"Dubai","address":"Sino Hospital  13th Street  Al Qusais  Dubai","phone":"+97146030555","benefits":["In-Patient","Out-Patient","Dental","Psychiatry","Assistance","Maternity","Optical","Alternative Treatment"],"gatekeeper":"No","lat":25.281544,"lng":55.365026,"geocode_status":"approximate","color":"#E63946"},{"id":111,"name":"Saudi German Hospital (AL BARSHA 3) Dubai","type":"Hospital","region":"Dubai","address":"Hessa Street 331 West  Al Barsha 3  Exit 36 Sheikh Zayed Road  Opposite of American School - Dubai","phone":"+97143890000","benefits":["In-Patient","Out-Patient","Dental","Psychiatry","Assistance","Maternity","Optical","Alternative Treatment"],"gatekeeper":"No","lat":25.097209,"lng":55.183506,"geocode_status":"exact","color":"#E63946"},{"id":112,"name":"Valiant Healthcare (City Walk) Dubai","type":"Hospital","region":"Dubai","address":"13th St. City Walk  Dubai","phone":"+97143872222","benefits":["In-Patient","Out-Patient","Dental","Psychiatry","Assistance","Maternity","Optical","Alternative Treatment"],"gatekeeper":"No","lat":25.201024,"lng":55.262761,"geocode_status":"approximate","color":"#E63946"},{"id":113,"name":"Zulekha Hospital (Al Nahda 2) Dubai","type":"Hospital","region":"Dubai","address":"Al Doha St - Dubai  P.O.Box 4857","phone":"+97142678866","benefits":["In-Patient","Out-Patient","Dental","Psychiatry","Assistance","Maternity","Optical","Alternative Treatment"],"gatekeeper":"No","lat":25.291117,"lng":55.384428,"geocode_status":"approximate","color":"#E63946"},{"id":114,"name":"Burjeel Specialty Hospital (Maysaloon) Sharjah","type":"Hospital","region":"Sharjah","address":"Near Al Fayha Park  Opposite Lulu Al Fayha  Maysaloon  Sharjah","phone":"+97165075073","benefits":["In-Patient","Out-Patient","Dental","Psychiatry","Assistance","Maternity","Optical","Alternative Treatment"],"gatekeeper":"No","lat":25.358745,"lng":55.40594,"geocode_status":"approximate","color":"#E63946"},{"id":115,"name":"CENTRAL HOSPITAL LLC (MAYSALOON) SHARJAH","type":"Hospital","region":"Sharjah","address":"Sheikh Zayed St  Mysaloon Near Clock Tower - Sharjah","phone":"+97165639900","benefits":["In-Patient","Out-Patient","Dental","Psychiatry","Assistance","Maternity","Optical","Alternative Treatment"],"gatekeeper":"No","lat":25.361036,"lng":55.398154,"geocode_status":"exact","color":"#E63946"},{"id":116,"name":"CITY SPECIALTY HOSPITAL (PRVSLY ORIANA SPECIALITY HOSPITAL)(AL TAAWUN) SHARJAH","type":"Hospital","region":"Sharjah","address":"PULLMAN HOTEL   AL TAAWUN","phone":"+971065918888","benefits":["In-Patient","Out-Patient","Dental","Psychiatry","Assistance","Maternity","Optical","Alternative Treatment"],"gatekeeper":"No","lat":25.35617,"lng":55.427211,"geocode_status":"approximate","color":"#E63946"},{"id":117,"name":"DAR AL KAMAL HOSPITAL (AL SHARQ) SHARJAH","type":"Hospital","region":"Sharjah","address":"DAR AL KAMALA AL SHARQ  AL HEERAH SUBURB  AL FISHT  SHARJAH","phone":"+97165997777","benefits":["In-Patient","Out-Patient","Dental","Psychiatry","Assistance","Maternity","Optical","Alternative Treatment"],"gatekeeper":"No","lat":25.382267,"lng":55.406483,"geocode_status":"approximate","color":"#E63946"},{"id":118,"name":"MEDCARE HOSPITAL BR 1 ( BU DANIG) SHARJAH (PREV ASTER HOSPITAL SHJ)","type":"Hospital","region":"Sharjah","address":"8CV3+H6X - Sheikh Saqr Bin Khalid Al Qasimi St - Bu Danig - Hay Al Qasimiah - Sharjah","phone":"+97165997200","benefits":["In-Patient","Out-Patient","Dental","Psychiatry","Assistance","Maternity","Optical","Alternative Treatment"],"gatekeeper":"No","lat":25.342473,"lng":55.388543,"geocode_status":"approximate","color":"#E63946"},{"id":119,"name":"MOH - AL DHAID HOSPITAL (AL SHARAYA DHAID) SHARJAH","type":"Hospital","region":"Sharjah","address":"Al Zaid  Sharjah UTBAN BIN MALIK ST - OMAIR BIN HABAB ST JUNCTION","phone":"+97168828777","benefits":["In-Patient","Out-Patient","Dental","Psychiatry","Assistance","Maternity","Optical","Alternative Treatment"],"gatekeeper":"No","lat":25.343395,"lng":55.408273,"geocode_status":"exact","color":"#E63946"},{"id":120,"name":"MOH - AL QASSIMI WOMEN & CHILDREN'S HOSPITAL (AL KHEZAMMIA) SHARJAH","type":"Hospital","region":"Sharjah","address":"Wasit Street; Al Khezammia Area Sharjah UAE","phone":"+97165120682","benefits":["In-Patient","Out-Patient","Dental","Psychiatry","Assistance","Maternity","Optical","Alternative Treatment"],"gatekeeper":"No","lat":25.340632,"lng":55.43317,"geocode_status":"exact","color":"#E63946"},{"id":121,"name":"MOH - Khorfakkan Hospital","type":"Hospital","region":"Sharjah","address":"Sharjah-Khorfkan PO Box : 10449","phone":"+97192370222","benefits":["In-Patient","Out-Patient","Dental","Psychiatry","Assistance","Maternity","Optical","Alternative Treatment"],"gatekeeper":"No","lat":25.349134,"lng":56.348659,"geocode_status":"approximate","color":"#E63946"},{"id":122,"name":"Medcare Hospital (King Faisal St.) Sharjah","type":"Hospital","region":"Sharjah","address":"King Faisal Street  Sharjah  UAE","phone":"+97165949701","benefits":["In-Patient","Out-Patient","Dental","Psychiatry","Assistance","Maternity","Optical","Alternative Treatment"],"gatekeeper":"No","lat":25.342473,"lng":55.388543,"geocode_status":"approximate","color":"#E63946"},{"id":123,"name":"NMC Royal Hospital (Al Zahra Private Hospital) - Al Gharb - Sharjah","type":"Hospital","region":"Sharjah","address":"Al Zahra St  Near Clock Tower - Sharjah   P.O.Box 3499","phone":"+97165168821","benefits":["In-Patient","Out-Patient","Dental","Psychiatry","Assistance","Maternity","Optical","Alternative Treatment"],"gatekeeper":"No","lat":25.360488,"lng":55.394217,"geocode_status":"exact","color":"#E63946"},{"id":124,"name":"Saudi German Hospital (Al Qasimi St.) Sharjah","type":"Hospital","region":"Sharjah","address":"Intersection of Mohammed Bin Saqr Al Qasimi Street Al Sharq Area Opposite Al Quds Mosque - Sharjah","phone":"+97143890045","benefits":["In-Patient","Out-Patient","Dental","Psychiatry","Assistance","Maternity","Optical","Alternative Treatment"],"gatekeeper":"No","lat":25.377245,"lng":55.400928,"geocode_status":"approximate","color":"#E63946"},{"id":125,"name":"Sharjah Corniche Hospital (Corniche Al Buhaira St.) Sharjah","type":"Hospital","region":"Sharjah","address":"Corniche Plaza II  10th Floor Opposite Marbella resort  Buhairah - Corniche Al Buhaira Street  Sharjah  P.O. Box: 21218","phone":"+97165751222","benefits":["In-Patient","Out-Patient","Dental","Psychiatry","Assistance","Maternity","Optical","Alternative Treatment"],"gatekeeper":"No","lat":25.341071,"lng":55.385782,"geocode_status":"approximate","color":"#E63946"},{"id":126,"name":"University Dental Hospital ( University City Rd.) Sharjah","type":"Hospital","region":"Sharjah","address":"University Of Sharjah، University City Road - Sharjah  alternate email: rana.nasir@udhs.ae","phone":"+97165057666","benefits":["In-Patient","Out-Patient","Dental","Psychiatry","Assistance","Maternity","Optical","Alternative Treatment"],"gatekeeper":"No","lat":25.35617,"lng":55.427211,"geocode_status":"approximate","color":"#E63946"},{"id":127,"name":"University Hospital (University City) Sharjah","type":"Hospital","region":"Sharjah","address":"University City  University Street - Sharjah","phone":"+97165058555","benefits":["In-Patient","Out-Patient","Dental","Psychiatry","Assistance","Maternity","Optical","Alternative Treatment"],"gatekeeper":"No","lat":25.29947,"lng":55.489701,"geocode_status":"approximate","color":"#E63946"},{"id":128,"name":"Zulekha Hospital (Al Nasseriya) Sharjah","type":"Hospital","region":"Sharjah","address":"Al Zahra St.  P.O.Box 457  Sharjah-UAE","phone":"+97165060182","benefits":["In-Patient","Out-Patient","Dental","Psychiatry","Assistance","Maternity","Optical","Alternative Treatment"],"gatekeeper":"No","lat":25.368916,"lng":55.40421,"geocode_status":"approximate","color":"#E63946"},{"id":129,"name":"Ajman Specialty General Hospital (Sheikh Maktoum Bin Rashid St.) Ajman","type":"Hospital","region":"Ajman","address":"Sheikh Maktoum Bin Rashid Street Ajman Industrial 1 Near Irani Market - Ajman","phone":"+97167484999","benefits":["In-Patient","Out-Patient","Dental","Psychiatry","Assistance","Maternity","Optical","Alternative Treatment"],"gatekeeper":"No","lat":25.392323,"lng":55.481644,"geocode_status":"approximate","color":"#E63946"},{"id":130,"name":"Amina Hospital - Ajman","type":"Hospital","region":"Ajman","address":"Al Quds St  Post Box 5625 - Ajman","phone":"+97167114444","benefits":["In-Patient","Out-Patient","Dental","Psychiatry","Assistance","Maternity","Optical","Alternative Treatment"],"gatekeeper":"No","lat":25.4037,"lng":55.441336,"geocode_status":"approximate","color":"#E63946"},{"id":131,"name":"Saudi German Hospital (Al Tallah) Ajman","type":"Hospital","region":"Ajman","address":"Sheikh Ammar Bin Humaid Street (Besides CUCA City University College of Ajman)   Al Tallah Region  Ajman UAE","phone":"+971800744823","benefits":["In-Patient","Out-Patient","Dental","Psychiatry","Assistance","Maternity","Optical","Alternative Treatment"],"gatekeeper":"No","lat":25.368516,"lng":55.509452,"geocode_status":"approximate","color":"#E63946"},{"id":132,"name":"Sheikh Khalifa General Hospital Ajman","type":"Hospital","region":"Ajman","address":"UNIVERSITY STREET","phone":"+97167118309","benefits":["In-Patient","Out-Patient","Dental","Psychiatry","Assistance","Maternity","Optical","Alternative Treatment"],"gatekeeper":"No","lat":25.501188,"lng":55.598812,"geocode_status":"approximate","color":"#E63946"},{"id":133,"name":"Sheikh Khalifa Hospital Masfout","type":"Hospital","region":"Ajman","address":"MASFOUT","phone":"+97167118309","benefits":["In-Patient","Out-Patient","Dental","Psychiatry","Assistance","Maternity","Optical","Alternative Treatment"],"gatekeeper":"No","lat":24.821158,"lng":56.07411,"geocode_status":"approximate","color":"#E63946"},{"id":134,"name":"Sheikh Khalifa Women And Children Ajman","type":"Hospital","region":"Ajman","address":"UNIVERSITY STREET","phone":"+97167118309","benefits":["In-Patient","Out-Patient","Dental","Psychiatry","Assistance","Maternity","Optical","Alternative Treatment"],"gatekeeper":"No","lat":25.417299,"lng":55.495937,"geocode_status":"exact","color":"#E63946"},{"id":135,"name":"Thumbay Hospital (Al Nuaimia 1) Ajman","type":"Hospital","region":"Ajman","address":"Near United Arab Bank - Sheikh Jaber Al Sabah Street - Al Nuaimiyah 1 - Ajman","phone":"+97167463333","benefits":["In-Patient","Out-Patient","Dental","Psychiatry","Assistance","Maternity","Optical","Alternative Treatment"],"gatekeeper":"No","lat":25.382082,"lng":55.462522,"geocode_status":"approximate","color":"#E63946"},{"id":136,"name":"Thumbay University Hospital Complex (Al Jurf) - Ajman","type":"Hospital","region":"Ajman","address":"AL JURF - Rashid Al-Khadar St - Ajman","phone":"+97167705555","benefits":["In-Patient","Out-Patient","Dental","Psychiatry","Assistance","Maternity","Optical","Alternative Treatment"],"gatekeeper":"No","lat":25.418737,"lng":55.500067,"geocode_status":"exact","color":"#E63946"},{"id":137,"name":"MOH - Umm Al Quwain Hospital - UAQ","type":"Hospital","region":"Umm Al Quwain","address":"nan","phone":"+97167656888","benefits":["In-Patient","Out-Patient","Dental","Psychiatry","Assistance","Maternity","Optical","Alternative Treatment"],"gatekeeper":"No","lat":25.575778,"lng":55.560003,"geocode_status":"approximate","color":"#E63946"},{"id":138,"name":"Sheikh Khalifa General Hospital (Al Salama St.) UAQ","type":"Hospital","region":"Umm Al Quwain","address":"Al Salama St.  Opp. Ministry of Social Affairs - Umm Al Quawain","phone":"+97167061111","benefits":["In-Patient","Out-Patient","Dental","Psychiatry","Assistance","Maternity","Optical","Alternative Treatment"],"gatekeeper":"No","lat":25.501188,"lng":55.598812,"geocode_status":"approximate","color":"#E63946"},{"id":139,"name":"AL SHARQ HOSPITAL (DIBBA) FUJAIRAH","type":"Hospital","region":"Fujairah","address":"Sheikh Zayed Bin Sultan Al Nahyan Road Al Nahdah Dibba Fujairah","phone":"+97192273200","benefits":["In-Patient","Out-Patient","Dental","Psychiatry","Assistance","Maternity","Optical","Alternative Treatment"],"gatekeeper":"No","lat":25.151311,"lng":56.35077,"geocode_status":"exact","color":"#E63946"},{"id":140,"name":"Al Sharq Hospital (Corniche Rd.) Fujairah","type":"Hospital","region":"Fujairah","address":"Corniche Road next to Umbrella Beach - Fujairah","phone":"+97192249999","benefits":["In-Patient","Out-Patient","Dental","Psychiatry","Assistance","Maternity","Optical","Alternative Treatment"],"gatekeeper":"No","lat":25.151311,"lng":56.35077,"geocode_status":"exact","color":"#E63946"},{"id":141,"name":"MOH - Masafi Hospital - Fujairah","type":"Hospital","region":"Fujairah","address":"1016 E88 - Fujairah","phone":"+97192065555","benefits":["In-Patient","Out-Patient","Dental","Psychiatry","Assistance","Maternity","Optical","Alternative Treatment"],"gatekeeper":"No","lat":25.122425,"lng":56.335055,"geocode_status":"exact","color":"#E63946"},{"id":142,"name":"SHEIKH KHALIFA HOSPITAL (AL FASEEL) FUJAIRAH","type":"Hospital","region":"Fujairah","address":"AL FASEEL AREA  OPPOSITE TO UMBRELLA BEACH  FUJAIRAH","phone":"+97192097777","benefits":["In-Patient","Out-Patient","Dental","Psychiatry","Assistance","Maternity","Optical","Alternative Treatment"],"gatekeeper":"No","lat":25.148479,"lng":56.353415,"geocode_status":"approximate","color":"#E63946"},{"id":143,"name":"Thumbay Hospital - Fujairah","type":"Hospital","region":"Fujairah","address":"Sheikh Khalifa Bin Zayed Road  Next to Fujairah Football Club & Stadium - Fujairah  PO Box 7585","phone":"+97192244233","benefits":["In-Patient","Out-Patient","Dental","Psychiatry","Assistance","Maternity","Optical","Alternative Treatment"],"gatekeeper":"No","lat":25.13199,"lng":56.341277,"geocode_status":"approximate","color":"#E63946"},{"id":144,"name":"MOH - Abdullah Bin Omran Hospital - Ras","type":"Hospital","region":"Ras al Khaimah","address":"Airport Rd - Ras al Khaimah","phone":"+97172444444","benefits":["In-Patient","Out-Patient","Dental","Psychiatry","Assistance","Maternity","Optical","Alternative Treatment"],"gatekeeper":"No","lat":25.646979,"lng":55.957589,"geocode_status":"approximate","color":"#E63946"},{"id":145,"name":"MOH - Ibrahim Bin Hamad Obaid Allah Hospital - Ras Al Khaimah","type":"Hospital","region":"Ras al Khaimah","address":"Al Hudiabah St - Ras al Khaimah","phone":"+97172465501","benefits":["In-Patient","Out-Patient","Dental","Psychiatry","Assistance","Maternity","Optical","Alternative Treatment"],"gatekeeper":"No","lat":25.796722,"lng":55.983703,"geocode_status":"approximate","color":"#E63946"},{"id":146,"name":"RAK Hospital (Al Juwais) Ras Al Khaimah","type":"Hospital","region":"Ras al Khaimah","address":"Al Juwais  Al Qusaidat - Next to RAK Medical & Health Sciences University - Ras al Khaimah  P.O.Box: 11393","phone":"+97172074444","benefits":["In-Patient","Out-Patient","Dental","Psychiatry","Assistance","Maternity","Optical","Alternative Treatment"],"gatekeeper":"No","lat":25.791383,"lng":55.960083,"geocode_status":"exact","color":"#E63946"},{"id":147,"name":"Sheikh Khalifa Speciality Hospital - Ras Al Khaimah","type":"Hospital","region":"Ras al Khaimah","address":"AL SHOHADAA ROAD TRUCK ROAD","phone":"+97172010371","benefits":["In-Patient","Out-Patient","Dental","Psychiatry","Assistance","Maternity","Optical","Alternative Treatment"],"gatekeeper":"No","lat":25.623193,"lng":55.839659,"geocode_status":"approximate","color":"#E63946"},{"id":148,"name":"32 SMILES DENTAL CLINIC LLC (AL MEEL) ABU DHABI","type":"Clinic","region":"Abu Dhabi","address":"PLAZA 30 AL MEEL STREET AL NAHYAN CAMP  ABU DHABI UAE","phone":"+97124454666","benefits":[],"gatekeeper":"No","lat":24.469335,"lng":54.33742,"geocode_status":"exact","color":"#4361EE"},{"id":149,"name":"4 U MEDICAL CENTER (AL AIN) ABU DHABI","type":"Clinic","region":"Abu Dhabi","address":"AL AIN UNIVERSITY CAMPUS BUILDING NAME \"U\" GROUND FLOOR Al Istishraf Street - شارع الاسْتِشْرَاف - Al Jimi - Slemi - AL AIN Abu Dhabi","phone":"+97137341900","benefits":[],"gatekeeper":"No","lat":24.300994,"lng":54.63427,"geocode_status":"approximate","color":"#4361EE"},{"id":150,"name":"A B C PLUS MEDICAL CENTER (MAFRAQ) ABU DHABI","type":"Clinic","region":"Abu Dhabi","address":"MAFRAQ JARN YAFOUR-Abu Dhabi","phone":"+97126279479","benefits":[],"gatekeeper":"No","lat":24.291517,"lng":54.581894,"geocode_status":"approximate","color":"#4361EE"},{"id":151,"name":"ABILITY PEDIATRIC REHABILITATION MEDICAL CENTER (AL DHANNAH CITY) ABU DHABI","type":"Clinic","region":"Abu Dhabi","address":"Villa Number 15  Behind Seven Hotspot Restaurant  Opposite Al Wahda Mall  Defence Road  P.O. BOX 128217  Abu Dhabi  UAE.","phone":"+97123092900","benefits":[],"gatekeeper":"No","lat":24.47245,"lng":54.372017,"geocode_status":"exact","color":"#4361EE"},{"id":152,"name":"ABU DHABI STEM CELLES CENTER (AL MISAHAH ST) ABU DHABI","type":"Clinic","region":"Abu Dhabi","address":"AL MISAHAH STREET  VILLA NO. 25  AL MISAHAH STREET  ROWDHAT  ABU DHABI","phone":"+97122086000","benefits":[],"gatekeeper":"No","lat":24.423618,"lng":54.456265,"geocode_status":"exact","color":"#4361EE"},{"id":153,"name":"ADAM & EVE SPECIALIZED MEDICAL CENTRE (KARAMA ST) ABU DHABI","type":"Clinic","region":"Abu Dhabi","address":"VILLA NO # 209  NEAR SHEIKH KHALIFA MEDICAL CITY AL KARAMAH STREET  ABU DHABI","phone":"+97126219996","benefits":[],"gatekeeper":"No","lat":24.49318,"lng":54.37244,"geocode_status":"approximate","color":"#4361EE"},{"id":154,"name":"ADNOC - ABU DHABI REFINERY CLINIC (PRVSLY SAS AL NAKHL CLINIC) ABU DHABI","type":"Clinic","region":"Abu Dhabi","address":"International Airport Road - Abu Dhabi","phone":"+97126020575","benefits":[],"gatekeeper":"No","lat":24.453884,"lng":54.377344,"geocode_status":"approximate","color":"#4361EE"},{"id":155,"name":"ADNOC - Asab Clinic - Western Region","type":"Clinic","region":"Abu Dhabi","address":"P.O. Box: 11876 Abu Dhabi  Western Region","phone":"+97126034222","benefits":[],"gatekeeper":"No","lat":23.287914,"lng":54.229289,"geocode_status":"approximate","color":"#4361EE"},{"id":156,"name":"ADNOC - Buhasa Clinic - Western Region","type":"Clinic","region":"Abu Dhabi","address":"P.O. Box: 11876 Abu Dhabi  Western Region","phone":"+97126035269","benefits":[],"gatekeeper":"No","lat":23.550487,"lng":53.296886,"geocode_status":"exact","color":"#4361EE"},{"id":157,"name":"ADNOC - Dabbayia Clinic - Western Region","type":"Clinic","region":"Abu Dhabi","address":"P.O. Box: 11876 Abu Dhabi  Western Region","phone":"+97126046789","benefits":[],"gatekeeper":"No","lat":23.652953,"lng":53.705117,"geocode_status":"approximate","color":"#4361EE"},{"id":158,"name":"ADNOC - HABSHAN MEDICAL CENTER WESTERN REGION PRVSLY HABSHAN CLINIC - WESTERN REGION","type":"Clinic","region":"Abu Dhabi","address":"P.O. Box: 11876 Abu Dhabi  Western Region","phone":"+97126038331","benefits":[],"gatekeeper":"No","lat":23.768528,"lng":53.557442,"geocode_status":"exact","color":"#4361EE"},{"id":159,"name":"ADNOC - Jabel Dhana Clinic - Western Region","type":"Clinic","region":"Abu Dhabi","address":"P.O. Box: 11876 Abu Dhabi  Western Region","phone":"+97126022444","benefits":[],"gatekeeper":"No","lat":24.17043,"lng":52.632461,"geocode_status":"approximate","color":"#4361EE"},{"id":160,"name":"ADNOC - Qusahwira Medical Center (Al Dhafra Reg.) Abu Dhabi","type":"Clinic","region":"Abu Dhabi","address":"Al Dhafra Region  P.O. Box : 898  Abu Dhabi","phone":"+97120000000","benefits":[],"gatekeeper":"No","lat":24.300994,"lng":54.63427,"geocode_status":"approximate","color":"#4361EE"},{"id":161,"name":"ADNOC - Sahel Clinic - Western Region","type":"Clinic","region":"Abu Dhabi","address":"P.O. Box: 11876 Abu Dhabi  Western Region","phone":"+97126049901","benefits":[],"gatekeeper":"No","lat":23.652953,"lng":53.705117,"geocode_status":"approximate","color":"#4361EE"},{"id":162,"name":"ADNOC - Shah Clinic - Western Region","type":"Clinic","region":"Abu Dhabi","address":"P.O. Box: 11876 Abu Dhabi  Western Region","phone":"+97126044200","benefits":[],"gatekeeper":"No","lat":23.652953,"lng":53.705117,"geocode_status":"approximate","color":"#4361EE"},{"id":163,"name":"ADNOC - Technical Institute Clinic - ATI - Abu Dhabi","type":"Clinic","region":"Abu Dhabi","address":"Al Shawamekh  Near Schlumberger - Abu Dhabi","phone":"+97126020575","benefits":[],"gatekeeper":"No","lat":24.377391,"lng":54.687329,"geocode_status":"exact","color":"#4361EE"},{"id":164,"name":"ADNOC - Umm Al Dakh Clinic - Abu Dhabi","type":"Clinic","region":"Abu Dhabi","address":"UMM AL DAKH Oilfield  Abu Dhabi","phone":"+97126020575","benefits":[],"gatekeeper":"No","lat":24.453177,"lng":54.380887,"geocode_status":"approximate","color":"#4361EE"},{"id":165,"name":"ADNOC - Zirku Medical Center - Abu Dhabi","type":"Clinic","region":"Abu Dhabi","address":"Zirku Island  Abu Dhabi","phone":"+97126020575","benefits":[],"gatekeeper":"No","lat":24.453884,"lng":54.377344,"geocode_status":"approximate","color":"#4361EE"},{"id":166,"name":"ADNOC HQ CLINIC (CORNICHE) ABU DHABI","type":"Clinic","region":"Abu Dhabi","address":"ADNOC Building Corniche Street  Corniche  Abu Dhabi UAE","phone":"+97127079999","benefits":[],"gatekeeper":"No","lat":24.46197,"lng":54.324212,"geocode_status":"approximate","color":"#4361EE"},{"id":167,"name":"ADNOC Onshore Medical Centre (prvsly ADCO Medical Centre) - Abu Dhabi","type":"Clinic","region":"Abu Dhabi","address":"Adco Medical Centre  Near Adco Operations Al Khalidiyah 1st Corniche Street  Abu Dhabi","phone":"+97126020575","benefits":[],"gatekeeper":"No","lat":24.473555,"lng":54.343275,"geocode_status":"approximate","color":"#4361EE"},{"id":168,"name":"ADRIA MEDICAL CENTER (MAZYAD MALL) ABU DHABIA (PREV ACACIA ADVANCED MC LLC)","type":"Clinic","region":"Abu Dhabi","address":"Mohamed Bin Zayed City zone 1   Abu Dhabi  United Arab Emirates  Villa No. 79","phone":"+97125551551","benefits":[],"gatekeeper":"No","lat":24.365613,"lng":54.540378,"geocode_status":"exact","color":"#4361EE"},{"id":169,"name":"AIN AL KHALEEJ MEDICAL CENTER PRVSLY EMIRATES CLINIC & MEDICAL SERVICE CENTER - AL AIN","type":"Clinic","region":"Abu Dhabi","address":"Al Ain Main Street","phone":"+97137644744","benefits":[],"gatekeeper":"No","lat":24.245879,"lng":55.722936,"geocode_status":"exact","color":"#4361EE"},{"id":170,"name":"AL AFDAL MEDICAL CENTER LLC (MINA)ABU DHABI","type":"Clinic","region":"Abu Dhabi","address":"BUILDING NO:982  MINA STREET  ABU DHABI","phone":"+97126355325","benefits":[],"gatekeeper":"No","lat":24.501597,"lng":54.373437,"geocode_status":"approximate","color":"#4361EE"},{"id":171,"name":"AL AMEEN MEDICAL CENTRE LLC (NAJDA ST) ABU DHABI","type":"Clinic","region":"Abu Dhabi","address":"BUILDING NO: 03  NAJDA STREET  ABOVE GIFTLAND  ABUDHABI  UAE","phone":"+97126339722","benefits":[],"gatekeeper":"No","lat":24.491832,"lng":54.367924,"geocode_status":"exact","color":"#4361EE"},{"id":172,"name":"AL AMEEN MEDICAL CENTRE LLC -  BRANCH 1 (MUSAFFAH) ABU DHABI","type":"Clinic","region":"Abu Dhabi","address":"M37  NEAR DESH BANGLA SUPERMARKET  INDUSTRIAL AREA  MUSAFFAH  ABUDHABI  UAE","phone":"+97125503115","benefits":[],"gatekeeper":"No","lat":24.491832,"lng":54.367924,"geocode_status":"exact","color":"#4361EE"},{"id":173,"name":"AL BAHRI DENTAL & ORTHODONTIC CENTER BRANCH (AL BATEEN) ABU DHABI","type":"Clinic","region":"Abu Dhabi","address":"NUILDING 836  AL KHALEEJ AL ARABI ST.  AL BATEEN  ABU DHABI  UAE","phone":"+97125751856","benefits":[],"gatekeeper":"No","lat":24.441918,"lng":54.368784,"geocode_status":"exact","color":"#4361EE"},{"id":174,"name":"AL BUSTAN MEDICAL CENTER PLUS LLC (MAFRAQ) ABU DHABI (EX NOOR AL SHIFA MEDICAL CENTER)","type":"Clinic","region":"Abu Dhabi","address":"New Shahama  Dubai Mafraq Road  Abu Dhabi","phone":"+97125633380","benefits":[],"gatekeeper":"No","lat":24.523663,"lng":54.671664,"geocode_status":"approximate","color":"#4361EE"},{"id":175,"name":"AL BUSTAN SEWAK DENTAL CENTER - L.L.C - O.P.C PRVSLY SEWAK AL EMARAT DENTAL CENTER - L.L.C - O.P.C","type":"Clinic","region":"Abu Dhabi","address":"Shakboot City  Street 66  Villa # 7  Abu Dhabi","phone":"+97125552011","benefits":[],"gatekeeper":"No","lat":24.354838,"lng":54.613911,"geocode_status":"exact","color":"#4361EE"},{"id":176,"name":"AL BUSTAN WESTERN MEDICAL CENTER L.L.C - S.P.C PRVSLY WESTERN MEDICAL CENTER - SOLE PROPRIETORSHIP L","type":"Clinic","region":"Abu Dhabi","address":"AL MIREEF ST. VILLA # 4  PLOT #105   OPP. AL YASMINA SCHOOL  KHALIFA CITY  ABU DHABI","phone":"+97125565522","benefits":[],"gatekeeper":"No","lat":24.42547,"lng":54.549676,"geocode_status":"approximate","color":"#4361EE"},{"id":177,"name":"AL DAWWA MEDICAL CENTER (SHK KHALIFA ST.) AL AIN","type":"Clinic","region":"Abu Dhabi","address":"Ajman Bank Building  Beside Al Ain Pharmacy  Sheikh Khalifa Bin Zayed St.  Al Mutawaa  Al Ain","phone":"+97137800182","benefits":[],"gatekeeper":"No","lat":24.225238,"lng":55.7582,"geocode_status":"approximate","color":"#4361EE"},{"id":178,"name":"AL FARABI MEDICAL CENTER PRVSLY AL FARABI MEDICAL CLINIC -AL AIN","type":"Clinic","region":"Abu Dhabi","address":"First Floor  Al Fardan Exchange Building  Main Street  Al Ain P.O. Box 17546","phone":"+97137515383","benefits":[],"gatekeeper":"No","lat":24.229521,"lng":55.670911,"geocode_status":"approximate","color":"#4361EE"},{"id":179,"name":"AL FARHAN MEDICAL CENTRE (BANIYAS) ABU DHABI","type":"Clinic","region":"Abu Dhabi","address":"HAMAD MUBARAK AL KHAILI  BANIYAS EAST-9  ABU DHABI","phone":"+971525833417","benefits":[],"gatekeeper":"No","lat":24.282607,"lng":54.647818,"geocode_status":"approximate","color":"#4361EE"},{"id":180,"name":"AL FAROOQ MEDICAL & DENTAL CENTRE (FIRST ZAYED ROAD) ABU DHABI","type":"Clinic","region":"Abu Dhabi","address":"512 AL HISN BLDG M FLOOR #00M FIRST ZAYED ROAD KHALIDIYA  ABU DHABI UAE","phone":"+97126667399","benefits":[],"gatekeeper":"No","lat":24.475375,"lng":54.351139,"geocode_status":"approximate","color":"#4361EE"},{"id":181,"name":"AL JIMI MEDICAL POLYCLINICS LLC (AL AIN) ABU DHABI","type":"Clinic","region":"Abu Dhabi","address":"zayed bin sultan street  central district  ALAIN  UAE","phone":"+97137657770","benefits":[],"gatekeeper":"No","lat":24.462266,"lng":54.393003,"geocode_status":"approximate","color":"#4361EE"},{"id":182,"name":"AL KHAJA MEDICAL CENTER (HAMDAN ST) ABU DHABI","type":"Clinic","region":"Abu Dhabi","address":"HAMDAN ST  AL DURRI ST. E/9/02 DARWISH AL SEERI BUILDING  ABU DHABI","phone":"+97126720048","benefits":[],"gatekeeper":"No","lat":24.493923,"lng":54.36828,"geocode_status":"approximate","color":"#4361EE"},{"id":183,"name":"AL KHAN DENTAL CLINIC LLC (SHABIYA12) ABU DHABI","type":"Clinic","region":"Abu Dhabi","address":"MUSAFFAH SHABIYA BUILDING NO C24  SHABIYA 12 ABU DHABI","phone":"+971561919696","benefits":[],"gatekeeper":"No","lat":24.324256,"lng":54.534102,"geocode_status":"approximate","color":"#4361EE"},{"id":184,"name":"AL KHAZNA HEALTH MEDICAL CENTER (KHAZNA 1) AL AIN","type":"Clinic","region":"Abu Dhabi","address":"SHOP#13  AL KHAZNA-01  AL AIN  UAE","phone":"+97125584609","benefits":[],"gatekeeper":"No","lat":24.17055,"lng":55.10981,"geocode_status":"approximate","color":"#4361EE"},{"id":185,"name":"AL MAGD MEDICAL CENTER (SANAIYA) AL AIN","type":"Clinic","region":"Abu Dhabi","address":"BEHIND NISSAN AL MASOOD SHOWROOM  AL  AIN  SANAIYA  LEETAG_5  ST-4.","phone":"+97137342225","benefits":[],"gatekeeper":"No","lat":24.187771,"lng":55.760259,"geocode_status":"approximate","color":"#4361EE"},{"id":186,"name":"AL MANAL DENTAL CENTER (KHALIFA A) ABU DHABI","type":"Clinic","region":"Abu Dhabi","address":"56 Al Murahibeen St - Khalifa City - Sector 32 - Abu Dhabi","phone":"+97126224006","benefits":[],"gatekeeper":"No","lat":24.421306,"lng":54.563082,"geocode_status":"exact","color":"#4361EE"},{"id":187,"name":"AL MEENA MEDICAL CENTRE LLC (AL KHIBEESI) AL AIN","type":"Clinic","region":"Abu Dhabi","address":"VILLA NO.28  AI AZEEZIYYAH ST  AL AIN","phone":"+97137800762","benefits":[],"gatekeeper":"No","lat":24.222274,"lng":55.695197,"geocode_status":"approximate","color":"#4361EE"},{"id":188,"name":"AL MUKHTAR MEDICAL CENTER (KHALIFA BIN ZAYED) ABU DHABI","type":"Clinic","region":"Abu Dhabi","address":"KHALIFA BIN ZAYED PO BOX 222208","phone":"+97137552333","benefits":[],"gatekeeper":"No","lat":24.489943,"lng":54.581475,"geocode_status":"approximate","color":"#4361EE"},{"id":189,"name":"AL RAYASHI DENTAL CENTER (AL DANAH) ABU DHABI","type":"Clinic","region":"Abu Dhabi","address":"101  1ST FLOOR  OYA BOUTIQUE BUILDING  KHALIFA STREET  BEHIND SOFITEL HOTEL  ABU DHABI","phone":"+97126792647","benefits":[],"gatekeeper":"No","lat":24.376938,"lng":54.514062,"geocode_status":"exact","color":"#4361EE"},{"id":190,"name":"AL ROUDHA MEDICAL CENTER (AL MURABBA) ABU DHABI","type":"Clinic","region":"Abu Dhabi","address":"Al SAROOJ –AL MURABBA BACK SIDE OF WELCOME TRADERS ABU DHABI AL AIN  03-7510810","phone":"+97137510810","benefits":[],"gatekeeper":"No","lat":24.323847,"lng":54.540025,"geocode_status":"approximate","color":"#4361EE"},{"id":191,"name":"AL SAQI MEDICAL POLYCLINIC ABU DHABI (PRVSLY AL SAQI MEDICAL CENTRE)","type":"Clinic","region":"Abu Dhabi","address":"Flat 102  silsil building  behind marks and spencer  hamdan   al dhana","phone":"+97126329451","benefits":[],"gatekeeper":"No","lat":24.486166,"lng":54.359857,"geocode_status":"exact","color":"#4361EE"},{"id":192,"name":"AL THURYA DENTAL IMPLANT CENTER (AL WATHBA MAL) ABU DHABI","type":"Clinic","region":"Abu Dhabi","address":"AL WTHBA SOUTH. PLOT NO C9. AL WATHBA MALL GROUND FLOOR. ABU DHABI","phone":"+97124432209","benefits":[],"gatekeeper":"No","lat":24.450198,"lng":54.362104,"geocode_status":"approximate","color":"#4361EE"},{"id":193,"name":"ALAFIA GHYATHI MEDICAL CENTRE (AL DHAFRA) ABU DHABI","type":"Clinic","region":"Abu Dhabi","address":"GHYATHI  INDUSTRIAL AREA  DEPARTMENT OF MUNICIPAL AFFAIRS BLOCK 18  ABU DHABI UAE","phone":"+97128740166","benefits":[],"gatekeeper":"No","lat":24.453884,"lng":54.377344,"geocode_status":"approximate","color":"#4361EE"},{"id":194,"name":"ALBEDDA MEDICAL POLYCLINICS (AL MARFA CITY) ABU DHABI","type":"Clinic","region":"Abu Dhabi","address":"ALMAGERA  ALMARFFA  ABU DHABI","phone":"+97126218371","benefits":[],"gatekeeper":"No","lat":24.453884,"lng":54.377344,"geocode_status":"approximate","color":"#4361EE"},{"id":195,"name":"ALSSEIFIYA ISLAND CLINIC PRVSLY SOUTH ISLAND CLINIC - ABU DHABI","type":"Clinic","region":"Abu Dhabi","address":"South Island Oilfeild  Abu Dhabi","phone":"+97126020575","benefits":[],"gatekeeper":"No","lat":24.472048,"lng":54.427347,"geocode_status":"approximate","color":"#4361EE"},{"id":196,"name":"AMWAJ MEDICAL CENTRE (KHALIFA ST) ABU DHABI","type":"Clinic","region":"Abu Dhabi","address":"Bin Bishr Building  Khalifa street  Abu Dhabi  UAE","phone":"+97126273888","benefits":[],"gatekeeper":"No","lat":24.491644,"lng":54.360155,"geocode_status":"approximate","color":"#4361EE"},{"id":197,"name":"APEX MEDICAL CENTRE (GHAYATHI) ABU DHABI","type":"Clinic","region":"Abu Dhabi","address":"BIN ASHEER BUILDING  GHAYATHI NEW INDUSTRIAL AREA  WESTERN REGION GHAYATHI  ABU DHABI","phone":"+97126500485","benefits":[],"gatekeeper":"No","lat":24.453884,"lng":54.377344,"geocode_status":"approximate","color":"#4361EE"},{"id":198,"name":"APPOLONIA ADVANCED PEDIATRIC DENTAL CENTER LLC (AL SALAMA) ABU DHABI","type":"Clinic","region":"Abu Dhabi","address":"BUILDING 88 GROUND FLOOR VILLA NO.88  AL SALAMA STREET  KHALIFA CITY  ABU DHABI UAE","phone":"+97126760100","benefits":[],"gatekeeper":"No","lat":24.46894,"lng":54.336463,"geocode_status":"exact","color":"#4361EE"},{"id":199,"name":"APPOLONIA PEDIATRIC DENTAL CENTER (CORNICHE) ABU DHABI","type":"Clinic","region":"Abu Dhabi","address":"44 NADD AL SHIBA ST - CORNICHE  ABU DHABI","phone":"+97126660997","benefits":[],"gatekeeper":"No","lat":24.46894,"lng":54.336463,"geocode_status":"exact","color":"#4361EE"},{"id":200,"name":"APPOLONIA PLUS PEDIATRIC DENTAL CENTER LLC (AL IREESH) ABU DHABI","type":"Clinic","region":"Abu Dhabi","address":"APPOLONIA BUILDING  ROUND FLOOR  AL IREESH STREET  ENTRAL DISTRICT AL AIN  ABU DHABI","phone":"+97137800252","benefits":[],"gatekeeper":"No","lat":24.46894,"lng":54.336463,"geocode_status":"exact","color":"#4361EE"},{"id":201,"name":"ARABIAN SPECIALIST MEDICAL CENTER (AL MUWAIJI) AL AIN","type":"Clinic","region":"Abu Dhabi","address":"33RD STREET  OUD BIN SAG-HAN  AL MUWAIJI  AL AIN","phone":"+97137663111","benefits":[],"gatekeeper":"No","lat":24.209002,"lng":55.688558,"geocode_status":"approximate","color":"#4361EE"},{"id":202,"name":"ASPRIS HEALTHCARE LLC (AL SAUD STREET) ABU DHABI","type":"Clinic","region":"Abu Dhabi","address":"FLAT #17 KING ABDULLAH BIN ABDULAZIZ AL SAUD STREET  ABU DHABI","phone":"+97126518111","benefits":[],"gatekeeper":"No","lat":24.45738,"lng":54.334975,"geocode_status":"approximate","color":"#4361EE"},{"id":203,"name":"Abu Dhabi Dental Clinic (Electra St.) Abu Dhabi","type":"Clinic","region":"Abu Dhabi","address":"Behind Castle Hotel  Same Alya Pharmacy Bldg.  Electra Street  Abu Dhabi","phone":"+97126341327","benefits":[],"gatekeeper":"No","lat":24.453884,"lng":54.377344,"geocode_status":"approximate","color":"#4361EE"},{"id":204,"name":"Abu Salman Medical Center (M-10) Mussafah","type":"Clinic","region":"Abu Dhabi","address":"Shabiat Khalifa  Near Juaind Pharmacy  M-10  Musaffah   Abu Dhabi","phone":"+97125522549","benefits":[],"gatekeeper":"No","lat":24.337346,"lng":54.535231,"geocode_status":"exact","color":"#4361EE"},{"id":205,"name":"Acacia Medical Center (Al Karamah St) Abu Dhabi","type":"Clinic","region":"Abu Dhabi","address":"Villa No. 15  Al Karamah St. Abu Dhabi","phone":"+97124445513","benefits":[],"gatekeeper":"No","lat":24.457376,"lng":54.374827,"geocode_status":"exact","color":"#4361EE"},{"id":206,"name":"Adam & Eve Specialized Medical Centre (Electra St.) Abu Dhabi","type":"Clinic","region":"Abu Dhabi","address":"1st Floor  Pink Building #501  Near Royal Rose Hotel  Zayed The First St. (Electra St.) - Abu Dhabi","phone":"+97126767366","benefits":[],"gatekeeper":"No","lat":24.49318,"lng":54.37244,"geocode_status":"approximate","color":"#4361EE"},{"id":207,"name":"Advance Cure Diagnostic Centre (Al Bateen)  Abu Dhabi","type":"Clinic","region":"Abu Dhabi","address":"Beside Al Bateen Mall  Al Bateen  Abu Dhabi  UAE","phone":"+97124100900","benefits":[],"gatekeeper":"No","lat":24.463184,"lng":54.344133,"geocode_status":"approximate","color":"#4361EE"},{"id":208,"name":"Advanced Cure Diagnostic Centre (Al Bateen) Abu Dhabi","type":"Clinic","region":"Abu Dhabi","address":"Al Falah Street  Near Al Bateen Mall  Al Bateen - Abu Dhabi","phone":"+97126675050","benefits":[],"gatekeeper":"No","lat":24.459316,"lng":54.349254,"geocode_status":"approximate","color":"#4361EE"},{"id":209,"name":"Advanced Cure Diagnostic Centre-Llc-Branch 2","type":"Clinic","region":"Abu Dhabi","address":"AL BATEEN  AL KHALEEJ AL ARABI","phone":"+97124100900","benefits":[],"gatekeeper":"No","lat":24.459316,"lng":54.349254,"geocode_status":"approximate","color":"#4361EE"},{"id":210,"name":"Ailabouny Medical Center (Salam St.) Abu Dhabi","type":"Clinic","region":"Abu Dhabi","address":"3rd Floor  Emirates Catering Equipment Building  Office # 302  Opposite Municipality  Salam Street  Tourist Club  PO Box: 4244  Abu Dhabi -UAE","phone":"+97126440125","benefits":[],"gatekeeper":"No","lat":24.493643,"lng":54.367834,"geocode_status":"exact","color":"#4361EE"},{"id":211,"name":"Al Ahly Specialist Medical Centre (Al Muroor St.) Abu Dhabi","type":"Clinic","region":"Abu Dhabi","address":"SH21_90a  Al Yameen Street   Al Shamkhah  Abudhabi   23843","phone":"+971024487553","benefits":[],"gatekeeper":"No","lat":24.367123,"lng":54.706586,"geocode_status":"approximate","color":"#4361EE"},{"id":212,"name":"Al Ain Ahili Medical Centre (Shk. Khalifa) Al Ain","type":"Clinic","region":"Abu Dhabi","address":"Opposite Al Sahir Cafeteria  Sheikh Khalifa Street  Al Ain","phone":"+97126228294","benefits":[],"gatekeeper":"No","lat":24.223153,"lng":55.722854,"geocode_status":"approximate","color":"#4361EE"},{"id":213,"name":"Al Amal Medical Centre (Baniyas East 9) Abu Dhabi","type":"Clinic","region":"Abu Dhabi","address":"HAMD AL KHAYLI BUILDING  33 RD STREET  BANIYAS EAST 9  ABU DHABI","phone":"+97125832331","benefits":[],"gatekeeper":"No","lat":24.282582,"lng":54.647849,"geocode_status":"exact","color":"#4361EE"},{"id":214,"name":"Al Areej Dental Clinic (Khalifa City) Abu Dhabi","type":"Clinic","region":"Abu Dhabi","address":"Mezzanine Floor  Building #3  Near Civil Defence Building  Khalifa City  Abu Dhabi","phone":"+97125565882","benefits":[],"gatekeeper":"No","lat":24.422444,"lng":54.565071,"geocode_status":"approximate","color":"#4361EE"},{"id":215,"name":"Al Bahri Dental Clinic (Zayed Bin Sultan St) Al Ain","type":"Clinic","region":"Abu Dhabi","address":"Zayed Bin Sultan St  Next to the Arab Bank  Beside Abu Dhabi Islamic  P.O.Box: 1580  Al Ain - email: samihbhr@eim.ae; albahridental@gmail.com; samihbhr@emirates.net.ae","phone":"+97137643273","benefits":[],"gatekeeper":"No","lat":24.221269,"lng":55.759214,"geocode_status":"exact","color":"#4361EE"},{"id":216,"name":"Al Basheer Medical Centre (Main St.)  Al Ain","type":"Clinic","region":"Abu Dhabi","address":"M1 & M2 Floor  Above Hayat Center Main Street  Al Ain","phone":"+97137665561","benefits":[],"gatekeeper":"No","lat":24.221909,"lng":55.77213,"geocode_status":"exact","color":"#4361EE"},{"id":217,"name":"Al Dhafra Modern Clinic (Bida Zayed) Abu Dhabi","type":"Clinic","region":"Abu Dhabi","address":"UAE Exchange building Sanaya Bida Zayed  Abu Dhabi","phone":"+97128846651","benefits":[],"gatekeeper":"No","lat":24.25977,"lng":54.555383,"geocode_status":"approximate","color":"#4361EE"},{"id":218,"name":"Al Dhafra Speciality Dental Clinic - Abu Dhabi","type":"Clinic","region":"Abu Dhabi","address":"Hamdan Street  Behind Liwa Centre ;  alt email:aldhafradental@gmail.com","phone":"+97126322800","benefits":[],"gatekeeper":"No","lat":24.25977,"lng":54.555383,"geocode_status":"approximate","color":"#4361EE"},{"id":219,"name":"Al Ghallan Island Clinic - Abu Dhabi","type":"Clinic","region":"Abu Dhabi","address":"CENTRAL ISLAND Oilfield  Abu Dhabi","phone":"+97126020575","benefits":[],"gatekeeper":"No","lat":24.472048,"lng":54.427347,"geocode_status":"approximate","color":"#4361EE"},{"id":220,"name":"Al Hendawy Medical Centre - Abu Dhabi","type":"Clinic","region":"Abu Dhabi","address":"P.O.Box: 105521","phone":"+97126213666","benefits":[],"gatekeeper":"No","lat":24.484148,"lng":54.367514,"geocode_status":"exact","color":"#4361EE"},{"id":221,"name":"Al Kamal Medical Polyclinics - Abu Dhabi","type":"Clinic","region":"Abu Dhabi","address":"OPP to ADCB Khalidiya Branch  Abu Dhabi","phone":"+97126651464","benefits":[],"gatekeeper":"No","lat":24.475754,"lng":54.350356,"geocode_status":"exact","color":"#4361EE"},{"id":222,"name":"Al Karama Medical Clinic - Abu dhabi","type":"Clinic","region":"Abu Dhabi","address":"Baladiya Market No 7  Baniyas  Abu Dhabi P. O. Box: 25693","phone":"+971026720204","benefits":[],"gatekeeper":"No","lat":24.2966,"lng":54.638968,"geocode_status":"exact","color":"#4361EE"},{"id":223,"name":"Al Madina Medical Center for Specialty Clinics","type":"Clinic","region":"Abu Dhabi","address":"P.O. Box: 126640   Behind Al Jazirah Club  Airport Road","phone":"+97126439779","benefits":[],"gatekeeper":"No","lat":24.451365,"lng":54.389162,"geocode_status":"approximate","color":"#4361EE"},{"id":224,"name":"Al Mamoon Medical Centre (Muwaiji-2) Al Ain","type":"Clinic","region":"Abu Dhabi","address":"Muwaiji-2  Street-2  Villa No. 38  Near Marriage Fund، Sheik Khalifa Bin Zayed St.  Al Ain City - Abu Dhabi","phone":"+97137666652","benefits":[],"gatekeeper":"No","lat":24.221113,"lng":55.714099,"geocode_status":"approximate","color":"#4361EE"},{"id":225,"name":"Al Manara Dental Clinic- Al Ain","type":"Clinic","region":"Abu Dhabi","address":"Al Ain  UAE","phone":"+97137665441","benefits":[],"gatekeeper":"No","lat":24.225467,"lng":55.760121,"geocode_status":"exact","color":"#4361EE"},{"id":226,"name":"Al Naseem Medical Centre LLC - Abu Dhabi","type":"Clinic","region":"Abu Dhabi","address":"PO Box 2620Behind Liwa Centre Hamdan StreetAbu Dhabi - U.A.E","phone":"+97126342834","benefits":[],"gatekeeper":"No","lat":24.487111,"lng":54.361566,"geocode_status":"approximate","color":"#4361EE"},{"id":227,"name":"Al Nasr Field Clinic - Abu Dhabi","type":"Clinic","region":"Abu Dhabi","address":"Al Nasr Field Island  Abu Dhabi","phone":"+97126024518","benefits":[],"gatekeeper":"No","lat":24.481911,"lng":54.362704,"geocode_status":"approximate","color":"#4361EE"},{"id":228,"name":"Al Noor Medical Center WLL - Al Ain","type":"Clinic","region":"Abu Dhabi","address":"Zayed Bin Sultan StreetP.O. Box: 15706  Al Ain","phone":"+97137662072","benefits":[],"gatekeeper":"No","lat":24.220136,"lng":55.774016,"geocode_status":"approximate","color":"#4361EE"},{"id":229,"name":"Al Nuaman Dental Medical Center (Al Naser Street) Abu Dhabi","type":"Clinic","region":"Abu Dhabi","address":"KHALIFA KHALAF AL MAZROUI BLDG.AL NASER STREET ABU DHABI UAE","phone":"+97126348482","benefits":[],"gatekeeper":"No","lat":24.480749,"lng":54.351241,"geocode_status":"approximate","color":"#4361EE"},{"id":230,"name":"Al Qabail Medical Centre L.L.C","type":"Clinic","region":"Abu Dhabi","address":"GROUND FLOOR   ICAD ROAD","phone":"+97125575531","benefits":[],"gatekeeper":"No","lat":24.347388,"lng":54.511688,"geocode_status":"approximate","color":"#4361EE"},{"id":231,"name":"Al Qadi Medical Center- Abu Dhabi","type":"Clinic","region":"Abu Dhabi","address":"P.O : 468 ST30  ZONE- 2  SECTOR-78 New Al Maharbha Area Opp Chinese embassyAbu Dhabi.","phone":"+97124437777","benefits":[],"gatekeeper":"No","lat":24.441941,"lng":54.368711,"geocode_status":"exact","color":"#4361EE"},{"id":232,"name":"Al Rafa Medical Centre (Khalidiya)  - Abu Dhabi","type":"Clinic","region":"Abu Dhabi","address":"United Square Building  Beside Khalidiya Mall  Khalidiya - Abu Dhabi","phone":"+97126266672","benefits":[],"gatekeeper":"No","lat":24.496731,"lng":54.374498,"geocode_status":"approximate","color":"#4361EE"},{"id":233,"name":"Al Raha Medical Center - Abu Dhabi prvsly Rahat Medical Centre - Abu Dhabi","type":"Clinic","region":"Abu Dhabi","address":"Abu Dhabi  UAE","phone":"+97126333924","benefits":[],"gatekeeper":"No","lat":24.488379,"lng":54.364595,"geocode_status":"exact","color":"#4361EE"},{"id":234,"name":"Al Raneen Medical Centre (Lucky Plaza Bldg.) Al Ain","type":"Clinic","region":"Abu Dhabi","address":"Lucky Plaza Bldg.  Main Street  Al Ain","phone":"+97137655602","benefits":[],"gatekeeper":"No","lat":24.221568,"lng":55.773078,"geocode_status":"approximate","color":"#4361EE"},{"id":235,"name":"Al Razi City Medical Center (Khalidiyah St) Abu Dhabi","type":"Clinic","region":"Abu Dhabi","address":"Al Awqaf Building M01  Khalidiyah Area  Abu Dhabi","phone":"+97126224431","benefits":[],"gatekeeper":"No","lat":24.476702,"lng":54.352813,"geocode_status":"approximate","color":"#4361EE"},{"id":236,"name":"Al Safwa Medical Center - Abu Dhabi","type":"Clinic","region":"Abu Dhabi","address":"Marjan Plaza Bulding P.O.Box 46704Abu Dhabi- UAE","phone":"+97126262989","benefits":[],"gatekeeper":"No","lat":24.296004,"lng":54.638883,"geocode_status":"exact","color":"#4361EE"},{"id":237,"name":"Al Sultan Advanced Polyclinic - Al Ain","type":"Clinic","region":"Abu Dhabi","address":"PO Box 15484  Falaj Hazza  Al Ain  UAE.","phone":"+97137806111","benefits":[],"gatekeeper":"No","lat":24.205103,"lng":55.718115,"geocode_status":"exact","color":"#4361EE"},{"id":238,"name":"Al Tadamon Medical Center - Abu Dhabi","type":"Clinic","region":"Abu Dhabi","address":"Building No. C299  Mussafa Shabia – 10  Street No. 47P.O. Box: 10541  Abu Dhabi","phone":"+97125545000","benefits":[],"gatekeeper":"No","lat":24.490914,"lng":54.37975,"geocode_status":"exact","color":"#4361EE"},{"id":239,"name":"Al Taweelah Medical Center - Abu Dhabi","type":"Clinic","region":"Abu Dhabi","address":"Khalifa Industrial Zone Abu Dhabi","phone":"+97123083145","benefits":[],"gatekeeper":"No","lat":24.742721,"lng":54.685724,"geocode_status":"approximate","color":"#4361EE"},{"id":240,"name":"Al Wahda Medical Centre - Abu Dhabi","type":"Clinic","region":"Abu Dhabi","address":"P.O.Box: 71469Defence RoadAbu Dhabi  UAE","phone":"+97126418383","benefits":[],"gatekeeper":"No","lat":24.471168,"lng":54.371013,"geocode_status":"approximate","color":"#4361EE"},{"id":241,"name":"Al Waqar Medical Centre - Al Ain","type":"Clinic","region":"Abu Dhabi","address":"Mohd Sherif Al Khury Building  Villa 16A  16B  Al Ain","phone":"+97137664521","benefits":[],"gatekeeper":"No","lat":24.222499,"lng":55.771521,"geocode_status":"approximate","color":"#4361EE"},{"id":242,"name":"Al Zhoor Medical Center - Al Ain","type":"Clinic","region":"Abu Dhabi","address":"Oud Althoba st.  Near Air ArabiaFloor M1  Room 104P.O Box: 85995Al Ain","phone":"+97137857365","benefits":[],"gatekeeper":"No","lat":24.228045,"lng":55.759276,"geocode_status":"approximate","color":"#4361EE"},{"id":243,"name":"All Care Medical Center  - Abu Dhabi","type":"Clinic","region":"Abu Dhabi","address":"Villa #726  Delma Street  Bet Airport Road & Muroor Road  Opp Of Zayed Educational Campus  Abu Dhabi","phone":"+97126660818","benefits":[],"gatekeeper":"No","lat":24.46416,"lng":54.379531,"geocode_status":"approximate","color":"#4361EE"},{"id":244,"name":"Alpha Medical Centre - Abu Dhabi","type":"Clinic","region":"Abu Dhabi","address":"Plot No. 1 Al Firdous Business Center  Sanaya M3  Mussafah","phone":"+97125558383","benefits":[],"gatekeeper":"No","lat":24.36958,"lng":54.517117,"geocode_status":"exact","color":"#4361EE"},{"id":245,"name":"Alqatia Island Clinic - Abu Dhabi","type":"Clinic","region":"Abu Dhabi","address":"Alqatia Island  Abu Dhabi  UAE","phone":"+97126024518","benefits":[],"gatekeeper":"No","lat":24.472048,"lng":54.427347,"geocode_status":"approximate","color":"#4361EE"},{"id":246,"name":"Ambulance Department-ADCD (Al Muroor Road) Abu Dhabi","type":"Clinic","region":"Abu Dhabi","address":"Al Muroor Road  Abu Dhabi  UAE","phone":"+97125131555","benefits":[],"gatekeeper":"No","lat":24.492916,"lng":54.381026,"geocode_status":"exact","color":"#4361EE"},{"id":247,"name":"American Center for Psychiatry & Neuro.(Al Manaseer) Abu Dhabi","type":"Clinic","region":"Abu Dhabi","address":"Villa No. 533 Intersection Hazza Bin Zayed (11th) Street and Mubarak Bin Mohammed (26th St after Moroccan and Japanese Embassies - Abu Dhabi  UAE","phone":"+97126979999","benefits":[],"gatekeeper":"No","lat":24.457779,"lng":54.371755,"geocode_status":"exact","color":"#4361EE"},{"id":248,"name":"American Center for Psychiatry & Neurology LLC - Branch 1 - Al Ain","type":"Clinic","region":"Abu Dhabi","address":"Between Al Jahili Roundabout and Industrial Roundabout  Al Ain","phone":"+97137131700","benefits":[],"gatekeeper":"No","lat":24.218796,"lng":55.686998,"geocode_status":"exact","color":"#4361EE"},{"id":249,"name":"American Crescent Healthcare Center - Abu Dhabi","type":"Clinic","region":"Abu Dhabi","address":"P.O. Box 29669Abu Dhabi-UAE","phone":"+97126325000","benefits":[],"gatekeeper":"No","lat":24.479362,"lng":54.355889,"geocode_status":"approximate","color":"#4361EE"},{"id":250,"name":"American Dental Center (Najda St.)  AUH","type":"Clinic","region":"Abu Dhabi","address":"H & M Building  Najda Street  Next to Al Maha Arjaan Hotel  Beside ibn Al-Nafees Medical Center Building  Abu Dhabi  UAE","phone":"+97126219800","benefits":[],"gatekeeper":"No","lat":24.462903,"lng":54.338525,"geocode_status":"approximate","color":"#4361EE"},{"id":251,"name":"Ansari Medical Centre (Al Nasr St) Abu Dhabi","type":"Clinic","region":"Abu Dhabi","address":"Al-Hosn  West  4 Building  Afra Muhammad Saif Assistant  Al Khalidiya  Abu Dhabi  UAE","phone":"+97126394139","benefits":[],"gatekeeper":"No","lat":24.475872,"lng":54.351487,"geocode_status":"approximate","color":"#4361EE"},{"id":252,"name":"Apollo Medical Centre (Hamdan Street) - Abu Dhabi","type":"Clinic","region":"Abu Dhabi","address":"M102  Muraijeb Tower  Near ADCB Bank  Hamdan Street  Abu Dhabi","phone":"+97126397733","benefits":[],"gatekeeper":"No","lat":24.489979,"lng":54.364453,"geocode_status":"exact","color":"#4361EE"},{"id":253,"name":"Arabian Island Medical Center - AUH","type":"Clinic","region":"Abu Dhabi","address":"BLOCK 187   SH 20   Al Shamkha   Baniyas AUH  UAE","phone":"+97128865922","benefits":[],"gatekeeper":"No","lat":24.300994,"lng":54.63427,"geocode_status":"approximate","color":"#4361EE"},{"id":254,"name":"Arzanah Clinic - Abu Dhabi","type":"Clinic","region":"Abu Dhabi","address":"Umm Al Nar  Near Al Maqta Bridge - Abu Dhabi","phone":"+97126020575","benefits":[],"gatekeeper":"No","lat":24.443804,"lng":54.35739,"geocode_status":"approximate","color":"#4361EE"},{"id":255,"name":"Asmat Dental Clinic (Liwa Street) Abu Dhabi","type":"Clinic","region":"Abu Dhabi","address":"E20 Al Souq Tower  Liwa Street  Abu Dhabi","phone":"+97126216063","benefits":[],"gatekeeper":"No","lat":24.490153,"lng":54.354982,"geocode_status":"approximate","color":"#4361EE"},{"id":256,"name":"Aster Primary Care (Musaffah) Abu Dhabi","type":"Clinic","region":"Abu Dhabi","address":"P.O. Box: 8703  Near 1st singal  Indultrial Area  MusaffahAbu Dhabi","phone":"+97125557078","benefits":[],"gatekeeper":"No","lat":24.453884,"lng":54.377344,"geocode_status":"approximate","color":"#4361EE"},{"id":257,"name":"Awazen Center  - Abu Dhabi","type":"Clinic","region":"Abu Dhabi","address":"Wahda Commercial Tower  8th Floor  HAzaa bin Zayed Street  Airport Road  Abu Dhabi","phone":"+97124411944","benefits":[],"gatekeeper":"No","lat":24.471972,"lng":54.374178,"geocode_status":"exact","color":"#4361EE"},{"id":258,"name":"B F MEDICAL CENTER (STREET NO 14) ABU DHABI","type":"Clinic","region":"Abu Dhabi","address":"FIRST CITY PROPERTIES  STREET NO 14  BATHA AL HAYER ABU DHABI UAE","phone":"+97137532777","benefits":[],"gatekeeper":"No","lat":24.323847,"lng":54.540025,"geocode_status":"approximate","color":"#4361EE"},{"id":259,"name":"BAB AL MADINA MEDICAL CENTER (MUSSAFAH) ABU DHABI","type":"Clinic","region":"Abu Dhabi","address":"16TH STREET  Mussafah M-26   Shop no. 04  near Grand Mosque  Abu Dhabi  UAE","phone":"+97126422464","benefits":[],"gatekeeper":"No","lat":24.350502,"lng":54.520577,"geocode_status":"approximate","color":"#4361EE"},{"id":260,"name":"BAB AL TEB MEDICAL CENTRE (MUSSAFAH) ABU DHABI","type":"Clinic","region":"Abu Dhabi","address":"PLOT # 61 SANAIYA M-6  Almarmoumiya 1 St MUSSAFAH","phone":"+97126737896","benefits":[],"gatekeeper":"No","lat":24.34833,"lng":54.473634,"geocode_status":"exact","color":"#4361EE"},{"id":261,"name":"BEAUTICA DENTAL CENTER (AL DANAH) ABU DHABI","type":"Clinic","region":"Abu Dhabi","address":"AL DANAH  HAMDAN ST. ABU DHABI UNITED ARAB EMIRATES","phone":"+97124465599","benefits":[],"gatekeeper":"No","lat":24.492743,"lng":54.366939,"geocode_status":"approximate","color":"#4361EE"},{"id":262,"name":"BEAUTY TRICK MEDICAL CENTER (AL MANHAL) ABU DHABI","type":"Clinic","region":"Abu Dhabi","address":"VILLA 21 AL KARAMA STREET","phone":"+97126422771","benefits":[],"gatekeeper":"No","lat":24.458948,"lng":54.373329,"geocode_status":"approximate","color":"#4361EE"},{"id":263,"name":"BELLEVUE MEDICAL CENTER (AL DANAH) ABU DHABI","type":"Clinic","region":"Abu Dhabi","address":"old Honda Showroom Building  E11 Maznine Floor  fLAT nO.7&8 Electra street Abu Dhabi  U.A.E","phone":"+97125844879","benefits":[],"gatekeeper":"No","lat":24.491448,"lng":54.371584,"geocode_status":"approximate","color":"#4361EE"},{"id":264,"name":"BIDA AL OSHANAH CLINIC (WESTERN REGION) ABU DHABI","type":"Clinic","region":"Abu Dhabi","address":"ZAYED CITY  WESTERN REGION  BU HASAH ROAD","phone":"+97128954318","benefits":[],"gatekeeper":"No","lat":24.453884,"lng":54.377344,"geocode_status":"approximate","color":"#4361EE"},{"id":265,"name":"BLOOM PLUS MEDICAL CENTER ABU DHABI PRVSLY AL FALAH MEDICAL CENTRE - ABU DHABI","type":"Clinic","region":"Abu Dhabi","address":"711-Z20  Al Anwar St.  Mohammad Bin Zayed City  Abu Dhabi  UAE","phone":"+97128865880","benefits":[],"gatekeeper":"No","lat":24.323844,"lng":54.539999,"geocode_status":"approximate","color":"#4361EE"},{"id":266,"name":"BREEZE MEDICAL CENTRE (AL DHAFRA) ABU DHABI","type":"Clinic","region":"Abu Dhabi","address":"ADCS BUILDING\tSHEIKHA SALAMA BINT BUTTI RD","phone":"+97128869855","benefits":[],"gatekeeper":"No","lat":23.652217,"lng":53.705976,"geocode_status":"approximate","color":"#4361EE"},{"id":267,"name":"BURJEEL CLINIC AIRPORT (ZAYED INTERNATIONAL AIRPORT) ABU DHABI","type":"Clinic","region":"Abu Dhabi","address":"ZAYED INTERNATIONAL AIRPORT  ABU DHABI","phone":"+97123041005","benefits":[],"gatekeeper":"No","lat":24.45143,"lng":54.642111,"geocode_status":"approximate","color":"#4361EE"},{"id":268,"name":"BURJEEL JUDICIARY MEDICAL CENTER (AL RAWDAH) ABU DHABI","type":"Clinic","region":"Abu Dhabi","address":"ABU DHABI JUDICIAL COURT - AL NAWFAL ST - AL RAWDAH - W58 - ABU DHABI","phone":"+97123041005","benefits":[],"gatekeeper":"No","lat":24.416812,"lng":54.447437,"geocode_status":"exact","color":"#4361EE"},{"id":269,"name":"BURJEEL MEDICAL CENTER (AL SHAMKHA) ABU DHABI","type":"Clinic","region":"Abu Dhabi","address":"Makani Mall  Al Shamkha  Abu Dhabi","phone":"+9719725085511","benefits":[],"gatekeeper":"No","lat":24.4794,"lng":54.381218,"geocode_status":"approximate","color":"#4361EE"},{"id":270,"name":"Baniyas  Al Ahli Medical Center - Abu Dhabi","type":"Clinic","region":"Abu Dhabi","address":"37/146  Near Ahmed Salem Al - Mahrami Mosque  Opp Al Madina hypermarket  M-37  Mussaffah  Abu Dhabi  UAE","phone":"+97125510606","benefits":[],"gatekeeper":"No","lat":24.367123,"lng":54.706586,"geocode_status":"approximate","color":"#4361EE"},{"id":271,"name":"Baniyas Medical Clinics - Abu Dhabi","type":"Clinic","region":"Abu Dhabi","address":"P.O.Box: 57407","phone":"+97125831116","benefits":[],"gatekeeper":"No","lat":24.287208,"lng":54.641324,"geocode_status":"exact","color":"#4361EE"},